# Time (s),Altitude (m),Altitude above sea level (m),Vertical velocity (m/s),Total velocity (m/s),Vertical acceleration (m/s²),Total acceleration (m/s²),Position East of launch (m),Position North of launch (m),Lateral distance (m),Lateral direction (°),Lateral velocity (m/s),Lateral acceleration (m/s²),Latitude (° N),Longitude (° E),Angle of attack (°),Roll rate (°/s),Pitch rate (°/s),Yaw rate (°/s),Vertical orientation (zenith) (°),Lateral orientation (azimuth) (°),Mass (g),Motor mass (g),Longitudinal moment of inertia (kg·m²),Rotational moment of inertia (kg·m²),Gravitational acceleration (m/s²),CP location (cm),CG location (cm),Stability margin calibers (​),Thrust (N),Thrust-to-weight ratio (​),Drag force (N),Drag coefficient (​),Friction drag coefficient (​),Pressure drag coefficient (​),Base drag coefficient (​),Axial drag coefficient (​),Normal force coefficient (​),Pitch moment coefficient (​),Yaw moment coefficient (​),Side force coefficient (​),Roll moment coefficient (​),Roll forcing coefficient (​),Roll damping coefficient (​),Pitch damping coefficient (​),Wind velocity (m/s),Wind direction (°),Air temperature (°C),Air pressure (mbar),Air density (g/cm³),Speed of sound (m/s),Mach number (​),Reynolds number (​),Reference length (cm),Reference area (cm²),Simulation time step (s),Computation time (s),Coriolis acceleration (m/s²)
0,0,396.24,0,0,0,0,0,0,0,0,0,0,0.499,-1.407,85,0,0,0,85,0,8.886e4,3.856e4,91.419,0.667,9.791,NaN,268.837,NaN,0,0,2.642e-4,0.505,0.386,0.014,0.105,8.01e-4,NaN,NaN,NaN,NaN,NaN,NaN,NaN,NaN,4.153,90,12.424,966.778,0.001,338.828,0.012,1.182e6,20.32,324.293,0.01,0.018,0
0.01,0,396.24,0,0,0,0,0,0,0,0,0,0,0.499,-1.407,85,0,0,0,85,0,8.885e4,3.856e4,91.426,0.667,9.791,NaN,268.79,NaN,304.37,0.35,2.676e-4,0.505,0.386,0.014,0.105,8.002e-4,NaN,NaN,NaN,NaN,NaN,NaN,NaN,NaN,4.182,90,12.424,966.778,0.001,338.828,0.012,1.191e6,20.32,324.293,0.01,0.024,0
0.02,0,396.24,0,0,0,0,0,0,0,0,0,0,0.499,-1.407,85,0,0,0,85,0,8.885e4,3.856e4,91.433,0.667,9.791,NaN,268.743,NaN,608.74,0.7,2.711e-4,0.504,0.385,0.014,0.105,7.993e-4,NaN,NaN,NaN,NaN,NaN,NaN,NaN,NaN,4.211,90,12.424,966.778,0.001,338.828,0.012,1.199e6,20.32,324.293,0.01,0.027,0
0.03,0,396.24,7.497e-4,0.002,0.45,0.978,0,0,0,0,0.001,0.868,0.499,-1.407,84.99,0,0,0,85,0,8.885e4,3.855e4,91.44,0.667,9.791,NaN,268.696,NaN,913.11,1.05,2.764e-4,0.504,0.385,0.014,0.105,8.032e-4,NaN,NaN,NaN,NaN,NaN,NaN,NaN,NaN,4.24,90,12.424,966.778,0.001,338.828,0.013,1.208e6,20.32,324.293,0.01,0.031,2.319e-7
0.04,3e-5,396.24,0.005,0.011,0.451,0.978,5.789e-5,0,5.789e-5,1.501e-5,0.01,0.868,0.499,-1.407,84.93,0,0,0,85,0,8.884e4,3.855e4,91.44,0.667,9.791,NaN,268.692,NaN,913.11,1.05,2.91e-4,0.503,0.384,0.014,0.105,8.309e-4,NaN,NaN,NaN,NaN,NaN,NaN,NaN,NaN,4.269,90,12.424,966.778,0.001,338.828,0.013,1.218e6,20.32,324.293,0.01,0.033,1.623e-6
0.05,1.05e-4,396.24,0.01,0.021,0.451,0.978,2.026e-4,0,2.026e-4,2.858e-5,0.019,0.867,0.499,-1.407,84.87,0,0,0,85,0,8.883e4,3.854e4,91.439,0.667,9.791,NaN,268.687,NaN,913.11,1.05,3.06e-4,0.502,0.383,0.014,0.105,8.587e-4,NaN,NaN,NaN,NaN,NaN,NaN,NaN,NaN,4.298,90,12.424,966.778,0.001,338.828,0.013,1.229e6,20.32,324.293,0.01,0.037,3.014e-6
0.06,8.384e-4,396.241,0.198,0.203,37.251,37.475,4.876e-4,0,4.876e-4,3.85e-5,0.044,4.087,0.499,-1.407,82.363,0,0,0,85,0,8.879e4,3.85e4,91.446,0.667,9.791,NaN,268.589,NaN,4192.607,4.823,9.79e-4,0.503,0.383,0.014,0.105,0.003,NaN,NaN,NaN,NaN,NaN,NaN,NaN,NaN,4.261,90,12.424,966.778,0.001,338.828,0.013,1.227e6,20.32,324.293,0.01,0.04,2.617e-5
0.07,0.005,396.245,0.755,0.762,74.088,74.448,0.001,0,0.001,4.254e-5,0.101,7.309,0.499,-1.407,75.095,0,0,0,85,0,8.875e4,3.845e4,91.453,0.667,9.791,NaN,268.491,NaN,7472.103,8.599,0.007,0.501,0.382,0.014,0.105,0.019,NaN,NaN,NaN,NaN,NaN,NaN,NaN,NaN,4.223,90,12.424,966.777,0.001,338.828,0.013,1.25e6,20.32,324.293,0.01,0.042,9.776e-5
0.08,0.017,396.257,1.68,1.691,110.962,111.461,0.003,0,0.003,4.722e-5,0.19,10.532,0.499,-1.407,63.991,0,0,0,85,0,8.87e4,3.841e4,91.46,0.667,9.791,NaN,268.393,NaN,1.075e4,12.38,0.036,0.496,0.377,0.014,0.105,0.086,NaN,NaN,NaN,NaN,NaN,NaN,NaN,NaN,4.185,90,12.424,966.776,0.001,338.828,0.014,1.334e6,20.32,324.293,0.01,0.044,2.169e-4
0.09,0.039,396.279,2.781,2.797,109.346,109.764,0.005,0,0.005,5.416e-5,0.294,9.567,0.499,-1.407,52.945,0,0,0,85,0,8.864e4,3.834e4,91.465,0.666,9.791,NaN,268.283,NaN,1.059e4,12.207,0.108,0.488,0.369,0.014,0.105,0.206,NaN,NaN,NaN,NaN,NaN,NaN,NaN,NaN,4.147,90,12.424,966.773,0.001,338.828,0.015,1.492e6,20.32,324.293,0.01,0.046,3.587e-4
0.1,0.073,396.313,3.866,3.886,107.656,108.067,0.008,8.263e-9,0.008,5.605e-5,0.389,9.419,0.499,-1.407,44.323,0,0,0,85,0,8.857e4,3.828e4,91.471,0.666,9.791,NaN,268.173,NaN,1.044e4,12.034,0.218,0.48,0.361,0.014,0.106,0.324,NaN,NaN,NaN,NaN,NaN,NaN,NaN,NaN,4.109,90,12.424,966.769,0.001,338.828,0.018,1.689e6,20.32,324.293,0.01,0.048,4.983e-4
0.11,0.117,396.357,4.937,4.961,106.499,106.906,0.013,1.177e-8,0.013,5.267e-5,0.483,9.317,0.499,-1.407,38.048,0,0,0,85,0,8.853e4,3.824e4,91.484,0.666,9.791,NaN,268.047,NaN,1.033e4,11.915,0.359,0.471,0.352,0.014,0.106,0.412,NaN,NaN,NaN,NaN,NaN,NaN,NaN,NaN,4.129,90,12.424,966.764,0.001,338.828,0.02,1.923e6,20.32,324.293,0.01,0.05,6.36e-4
0.12,0.171,396.411,5.996,6.024,105.34,105.743,0.018,1.528e-8,0.018,4.838e-5,0.576,9.216,0.499,-1.407,33.229,0,0,0,85,0,8.849e4,3.819e4,91.499,0.666,9.791,NaN,267.922,NaN,1.022e4,11.797,0.526,0.463,0.344,0.014,0.106,0.472,NaN,NaN,NaN,NaN,NaN,NaN,NaN,NaN,4.148,90,12.423,966.758,0.001,338.827,0.023,2.173e6,20.32,324.293,0.01,0.051,7.723e-4
0.13,0.237,396.477,7.044,7.075,104.181,104.578,0.024,1.88e-8,0.024,4.429e-5,0.667,9.115,0.499,-1.407,29.463,0,0,0,85,0,8.845e4,3.815e4,91.513,0.665,9.791,NaN,267.796,NaN,1.011e4,11.678,0.714,0.456,0.337,0.014,0.106,0.512,NaN,NaN,NaN,NaN,NaN,NaN,NaN,NaN,4.167,90,12.423,966.75,0.001,338.827,0.025,2.432e6,20.32,324.293,0.01,0.053,9.071e-4
0.14,0.312,396.552,8.083,8.119,103.649,104.045,0.031,2.231e-8,0.031,4.065e-5,0.758,9.068,0.499,-1.407,26.456,0,0,0,85,0,8.838e4,3.809e4,91.518,0.665,9.791,NaN,267.699,NaN,1.006e4,11.624,0.92,0.45,0.331,0.014,0.106,0.536,NaN,NaN,NaN,NaN,NaN,NaN,NaN,NaN,4.187,90,12.422,966.741,0.001,338.827,0.028,2.698e6,20.32,324.293,0.01,0.054,0.001
0.15,0.398,396.638,9.117,9.156,103.116,103.51,0.039,2.582e-8,0.039,3.747e-5,0.849,9.021,0.499,-1.407,24.004,0,0,0,85,0,8.832e4,3.803e4,91.524,0.665,9.791,NaN,267.601,NaN,1e4,11.57,1.142,0.444,0.325,0.014,0.106,0.55,NaN,NaN,NaN,NaN,NaN,NaN,NaN,NaN,4.206,90,12.422,966.731,0.001,338.827,0.031,2.968e6,20.32,324.293,0.01,0.057,0.001
0.16,0.495,396.735,10.141,10.184,101.66,102.049,0.048,2.933e-8,0.048,3.471e-5,0.938,8.894,0.499,-1.407,22.143,0,0,0,85,0,8.828e4,3.799e4,91.524,0.664,9.791,NaN,267.556,NaN,9871.43,11.421,1.38,0.439,0.32,0.014,0.106,0.556,NaN,NaN,NaN,NaN,NaN,NaN,NaN,NaN,4.261,90,12.421,966.72,0.001,338.826,0.034,3.244e6,20.32,324.293,0.01,0.06,0.001
0.17,0.601,396.841,11.15,11.197,100.203,100.586,0.058,3.284e-8,0.058,3.231e-5,1.026,8.767,0.499,-1.407,20.6,0,0,0,85,0,8.824e4,3.795e4,91.523,0.664,9.791,NaN,267.512,NaN,9738.16,11.271,1.629,0.435,0.315,0.014,0.106,0.557,NaN,NaN,NaN,NaN,NaN,NaN,NaN,NaN,4.316,90,12.421,966.707,0.001,338.826,0.036,3.52e6,20.32,324.293,0.01,0.062,0.001
0.18,0.718,396.958,12.145,12.196,98.745,99.122,0.069,3.635e-8,0.069,3.021e-5,1.114,8.639,0.499,-1.407,19.302,0,0,0,85,0,8.82e4,3.791e4,91.523,0.664,9.791,NaN,267.467,NaN,9604.89,11.122,1.89,0.431,0.311,0.014,0.106,0.557,NaN,NaN,NaN,NaN,NaN,NaN,NaN,NaN,4.371,90,12.42,966.694,0.001,338.825,0.039,3.794e6,20.32,324.293,0.01,0.064,0.002
0.19,0.844,397.084,13.13,13.185,98.306,98.682,0.081,3.986e-8,0.081,2.837e-5,1.2,8.601,0.499,-1.407,18.192,0,0,0,85,0,8.814e4,3.785e4,91.529,0.664,9.791,NaN,267.376,NaN,9559.955,11.078,2.162,0.427,0.308,0.014,0.106,0.554,NaN,NaN,NaN,NaN,NaN,NaN,NaN,NaN,4.426,90,12.419,966.679,0.001,338.825,0.042,4.067e6,20.32,324.293,0.01,0.066,0.002
0.2,0.98,397.22,14.111,14.169,97.868,98.241,0.093,4.337e-8,0.093,2.674e-5,1.286,8.562,0.499,-1.407,17.226,0,0,0,85,0,8.808e4,3.779e4,91.534,0.663,9.791,NaN,267.285,NaN,9515.02,11.033,2.446,0.423,0.304,0.014,0.106,0.551,NaN,NaN,NaN,NaN,NaN,NaN,NaN,NaN,4.481,90,12.418,966.663,0.001,338.824,0.045,4.34e6,20.32,324.293,0.01,0.068,0.002
0.21,1.126,397.366,15.087,15.15,97.421,97.793,0.106,4.688e-8,0.106,2.529e-5,1.371,8.523,0.499,-1.407,16.266,0,0,0,85,0,8.804e4,3.775e4,91.537,0.663,9.791,NaN,267.227,NaN,9471.613,10.987,2.735,0.42,0.301,0.014,0.106,0.546,NaN,NaN,NaN,NaN,NaN,NaN,NaN,NaN,4.501,90,12.417,966.646,0.001,338.824,0.048,4.609e6,20.32,324.293,0.01,0.07,0.002
0.22,1.282,397.522,16.059,16.125,96.973,97.344,0.12,5.039e-8,0.12,2.399e-5,1.456,8.484,0.499,-1.407,15.415,0,0,0,85,0,8.801e4,3.771e4,91.541,0.663,9.791,NaN,267.169,NaN,9428.207,10.942,3.03,0.417,0.298,0.014,0.106,0.54,NaN,NaN,NaN,NaN,NaN,NaN,NaN,NaN,4.521,90,12.416,966.627,0.001,338.823,0.051,4.878e6,20.32,324.293,0.01,0.071,0.002
0.23,1.447,397.687,17.027,17.096,96.525,96.894,0.135,5.39e-8,0.135,2.282e-5,1.541,8.445,0.499,-1.407,14.657,0,0,0,85,0,8.797e4,3.767e4,91.544,0.663,9.791,NaN,267.11,NaN,9384.8,10.896,3.33,0.415,0.295,0.014,0.106,0.533,NaN,NaN,NaN,NaN,NaN,NaN,NaN,NaN,4.542,90,12.415,966.608,0.001,338.822,0.053,5.147e6,20.32,324.293,0.01,0.073,0.002
0.24,1.622,397.862,17.987,18.06,95.475,95.84,0.151,5.741e-8,0.151,2.176e-5,1.625,8.353,0.499,-1.407,13.98,0,0,0,85,0,8.791e4,3.762e4,91.544,0.663,9.791,NaN,267.05,NaN,9286.33,10.789,3.636,0.412,0.293,0.014,0.106,0.526,NaN,NaN,NaN,NaN,NaN,NaN,NaN,NaN,4.562,90,12.414,966.587,0.001,338.822,0.056,5.415e6,20.32,324.293,0.01,0.075,0.002
0.25,1.807,398.047,18.936,19.013,94.423,94.784,0.168,6.092e-8,0.168,2.08e-5,1.708,8.261,0.499,-1.407,13.374,0,0,0,85,0,8.785e4,3.756e4,91.544,0.662,9.791,NaN,266.989,NaN,9187.86,10.682,3.947,0.41,0.29,0.014,0.106,0.519,NaN,NaN,NaN,NaN,NaN,NaN,NaN,NaN,4.582,90,12.413,966.566,0.001,338.821,0.059,5.68e6,20.32,324.293,0.01,0.078,0.002
0.26,2.001,398.241,19.876,19.957,93.566,93.924,0.185,6.444e-8,0.185,1.992e-5,1.79,8.186,0.499,-1.407,12.738,0,0,0,85,0,8.782e4,3.752e4,91.541,0.662,9.791,NaN,266.966,NaN,9108.757,10.594,4.254,0.408,0.288,0.014,0.106,0.511,NaN,NaN,NaN,NaN,NaN,NaN,NaN,NaN,4.568,90,12.411,966.543,0.001,338.82,0.062,5.94e6,20.32,324.293,0.01,0.08,0.003
0.27,2.205,398.445,20.808,20.892,92.709,93.063,0.204,6.795e-8,0.204,1.912e-5,1.871,8.111,0.499,-1.407,12.159,0,0,0,85,0,8.778e4,3.748e4,91.538,0.662,9.791,NaN,266.943,NaN,9029.653,10.507,4.565,0.406,0.286,0.014,0.106,0.504,NaN,NaN,NaN,NaN,NaN,NaN,NaN,NaN,4.553,90,12.41,966.519,0.001,338.819,0.064,6.199e6,20.32,324.293,0.01,0.081,0.003
0.28,2.417,398.657,21.73,21.818,91.85,92.201,0.223,7.146e-8,0.223,1.838e-5,1.952,8.036,0.499,-1.407,11.632,0,0,0,85,0,8.774e4,3.745e4,91.534,0.662,9.791,NaN,266.92,NaN,8950.55,10.419,4.882,0.404,0.284,0.014,0.106,0.496,NaN,NaN,NaN,NaN,NaN,NaN,NaN,NaN,4.539,90,12.409,966.494,0.001,338.819,0.067,6.456e6,20.32,324.293,0.01,0.083,0.003
0.29,2.639,398.879,22.65,22.741,92.095,92.447,0.243,7.497e-8,0.243,1.77e-5,2.033,8.057,0.499,-1.407,11.146,0,0,0,85,0,8.769e4,3.739e4,91.535,0.661,9.791,NaN,266.862,NaN,8966.695,10.444,5.205,0.402,0.282,0.014,0.106,0.49,NaN,NaN,NaN,NaN,NaN,NaN,NaN,NaN,4.525,90,12.407,966.468,0.001,338.818,0.07,6.712e6,20.32,324.293,0.01,0.084,0.003
0.3,2.87,399.11,23.572,23.667,92.339,92.692,0.263,7.848e-8,0.263,1.707e-5,2.113,8.079,0.499,-1.407,10.695,0,0,0,85,0,8.763e4,3.734e4,91.535,0.661,9.791,NaN,266.804,NaN,8982.84,10.47,5.538,0.4,0.28,0.014,0.106,0.483,NaN,NaN,NaN,NaN,NaN,NaN,NaN,NaN,4.51,90,12.406,966.441,0.001,338.817,0.072,6.97e6,20.32,324.293,0.01,0.086,0.003
0.31,3.111,399.351,24.488,24.586,90.77,91.117,0.285,8.199e-8,0.285,1.649e-5,2.193,7.941,0.499,-1.407,10.326,0,0,0,85,0,8.759e4,3.73e4,91.531,0.661,9.791,NaN,266.783,NaN,8841.587,10.309,5.885,0.399,0.279,0.014,0.106,0.478,NaN,NaN,NaN,NaN,NaN,NaN,NaN,NaN,4.518,90,12.404,966.413,0.001,338.816,0.075,7.227e6,20.32,324.293,0.01,0.087,0.003
0.32,3.36,399.6,25.388,25.489,89.2,89.541,0.307,8.55e-8,0.307,1.594e-5,2.272,7.804,0.499,-1.407,9.988,0,0,0,85,0,8.756e4,3.726e4,91.528,0.661,9.791,NaN,266.761,NaN,8700.333,10.149,6.236,0.397,0.277,0.014,0.106,0.472,NaN,NaN,NaN,NaN,NaN,NaN,NaN,NaN,4.525,90,12.403,966.384,0.001,338.815,0.078,7.481e6,20.32,324.293,0.01,0.089,0.003
0.33,3.618,399.858,26.272,26.377,87.628,87.963,0.33,8.901e-8,0.33,1.544e-5,2.349,7.666,0.499,-1.407,9.678,0,0,0,85,0,8.752e4,3.723e4,91.525,0.661,9.791,NaN,266.74,NaN,8559.08,9.988,6.589,0.396,0.276,0.014,0.106,0.467,NaN,NaN,NaN,NaN,NaN,NaN,NaN,NaN,4.532,90,12.401,966.353,0.001,338.814,0.08,7.73e6,20.32,324.293,0.01,0.092,0.003
0.34,3.885,400.125,27.137,27.245,85.43,85.756,0.354,9.252e-8,0.354,1.496e-5,2.425,7.474,0.499,-1.407,9.394,0,0,0,85,0,8.747e4,3.718e4,91.526,0.66,9.791,NaN,266.686,NaN,8361.46,9.763,6.944,0.394,0.274,0.014,0.106,0.463,NaN,NaN,NaN,NaN,NaN,NaN,NaN,NaN,4.539,90,12.399,966.322,0.001,338.813,0.083,7.974e6,20.32,324.293,0.01,0.094,0.003
0.35,4.161,400.401,27.981,28.092,83.229,83.547,0.379,9.603e-8,0.379,1.452e-5,2.499,7.282,0.499,-1.407,9.133,0,0,0,85,0,8.742e4,3.713e4,91.526,0.66,9.791,NaN,266.633,NaN,8163.84,9.538,7.299,0.393,0.273,0.014,0.106,0.459,NaN,NaN,NaN,NaN,NaN,NaN,NaN,NaN,4.547,90,12.397,966.29,0.001,338.812,0.085,8.212e6,20.32,324.293,0.01,0.096,0.004
0.36,4.445,400.685,28.813,28.927,83.177,83.495,0.404,9.954e-8,0.404,1.411e-5,2.572,7.277,0.499,-1.407,8.876,0,0,0,85,0,8.739e4,3.709e4,91.523,0.66,9.791,NaN,266.613,NaN,8156.487,9.533,7.653,0.392,0.272,0.014,0.106,0.455,NaN,NaN,NaN,NaN,NaN,NaN,NaN,NaN,4.546,90,12.396,966.256,0.001,338.811,0.088,8.447e6,20.32,324.293,0.01,0.097,0.004
0.37,4.737,400.977,29.644,29.762,83.125,83.443,0.43,1.031e-7,0.43,1.372e-5,2.644,7.272,0.499,-1.407,8.633,0,0,0,85,0,8.735e4,3.706e4,91.52,0.66,9.791,NaN,266.594,NaN,8149.133,9.528,8.016,0.391,0.27,0.014,0.106,0.451,NaN,NaN,NaN,NaN,NaN,NaN,NaN,NaN,4.545,90,12.394,966.222,0.001,338.809,0.09,8.681e6,20.32,324.293,0.01,0.099,0.004
0.38,5.038,401.278,30.475,30.596,83.073,83.39,0.457,1.066e-7,0.457,1.336e-5,2.717,7.268,0.499,-1.407,8.403,0,0,0,85,0,8.732e4,3.703e4,91.517,0.659,9.791,NaN,266.574,NaN,8141.78,9.523,8.386,0.39,0.269,0.014,0.106,0.447,NaN,NaN,NaN,NaN,NaN,NaN,NaN,NaN,4.545,90,12.392,966.187,0.001,338.808,0.092,8.916e6,20.32,324.293,0.01,0.1,0.004
0.39,5.347,401.587,31.302,31.426,82.274,82.588,0.485,1.101e-7,0.485,1.301e-5,2.79,7.198,0.499,-1.407,8.186,0,0,0,85,0,8.727e4,3.698e4,91.518,0.659,9.791,NaN,266.523,NaN,8067.52,9.442,8.763,0.389,0.268,0.014,0.106,0.444,NaN,NaN,NaN,NaN,NaN,NaN,NaN,NaN,4.544,90,12.39,966.151,0.001,338.807,0.095,9.149e6,20.32,324.293,0.01,0.101,0.004
0.4,5.664,401.904,32.121,32.248,81.473,81.785,0.513,1.136e-7,0.513,1.269e-5,2.861,7.128,0.499,-1.407,7.981,0,0,0,85,0,8.722e4,3.693e4,91.518,0.659,9.791,NaN,266.472,NaN,7993.26,9.36,9.143,0.387,0.267,0.014,0.107,0.44,NaN,NaN,NaN,NaN,NaN,NaN,NaN,NaN,4.543,90,12.388,966.113,0.001,338.806,0.097,9.381e6,20.32,324.293,0.01,0.103,0.004
0.41,5.989,402.229,32.935,33.065,81.365,81.676,0.542,1.171e-7,0.542,1.238e-5,2.932,7.119,0.499,-1.407,7.859,0,0,0,85,0,8.719e4,3.689e4,91.515,0.659,9.791,NaN,266.453,NaN,7981.153,9.349,9.551,0.386,0.266,0.014,0.107,0.438,NaN,NaN,NaN,NaN,NaN,NaN,NaN,NaN,4.586,90,12.386,966.075,0.001,338.805,0.1,9.613e6,20.32,324.293,0.01,0.104,0.004
0.42,6.322,402.562,33.748,33.881,81.256,81.567,0.572,1.206e-7,0.572,1.209e-5,3.004,7.109,0.499,-1.407,7.742,0,0,0,85,0,8.715e4,3.686e4,91.512,0.659,9.791,NaN,266.434,NaN,7969.047,9.339,9.967,0.386,0.265,0.014,0.107,0.436,NaN,NaN,NaN,NaN,NaN,NaN,NaN,NaN,4.628,90,12.383,966.036,0.001,338.803,0.102,9.846e6,20.32,324.293,0.01,0.105,0.004
0.43,6.664,402.904,34.56,34.696,81.147,81.457,0.602,1.241e-7,0.602,1.181e-5,3.075,7.099,0.499,-1.407,7.631,0,0,0,85,0,8.712e4,3.683e4,91.509,0.658,9.791,NaN,266.415,NaN,7956.94,9.328,10.39,0.385,0.264,0.014,0.107,0.433,NaN,NaN,NaN,NaN,NaN,NaN,NaN,NaN,4.67,90,12.381,965.996,0.001,338.802,0.105,1.008e7,20.32,324.293,0.01,0.107,0.004
0.44,7.014,403.254,35.365,35.505,79.957,80.262,0.633,1.276e-7,0.633,1.155e-5,3.145,6.995,0.499,-1.407,7.527,0,0,0,85,0,8.707e4,3.678e4,91.505,0.658,9.791,NaN,266.388,NaN,7848.915,9.207,10.819,0.384,0.263,0.014,0.107,0.431,NaN,NaN,NaN,NaN,NaN,NaN,NaN,NaN,4.713,90,12.379,965.955,0.001,338.8,0.107,1.031e7,20.32,324.293,0.01,0.109,0.005
0.45,7.371,403.611,36.159,36.302,78.765,79.066,0.665,1.311e-7,0.665,1.13e-5,3.214,6.891,0.499,-1.407,7.429,0,0,0,85,0,8.703e4,3.673e4,91.501,0.658,9.791,NaN,266.36,NaN,7740.89,9.085,11.251,0.383,0.262,0.014,0.107,0.429,NaN,NaN,NaN,NaN,NaN,NaN,NaN,NaN,4.755,90,12.377,965.913,0.001,338.799,0.109,1.054e7,20.32,324.293,0.01,0.111,0.005
0.46,7.737,403.977,36.947,37.092,78.798,79.099,0.697,1.347e-7,0.697,1.106e-5,3.283,6.894,0.499,-1.407,7.274,0,0,0,85,0,8.699e4,3.67e4,91.498,0.658,9.791,NaN,266.342,NaN,7741.337,9.089,11.665,0.382,0.261,0.014,0.107,0.427,NaN,NaN,NaN,NaN,NaN,NaN,NaN,NaN,4.755,90,12.374,965.87,0.001,338.798,0.112,1.076e7,20.32,324.293,0.01,0.113,0.005
0.47,8.11,404.35,37.735,37.884,78.831,79.132,0.73,1.382e-7,0.73,1.084e-5,3.352,6.897,0.499,-1.407,7.125,0,0,0,85,0,8.696e4,3.667e4,91.495,0.658,9.791,NaN,266.324,NaN,7741.783,9.093,12.086,0.381,0.26,0.014,0.107,0.425,NaN,NaN,NaN,NaN,NaN,NaN,NaN,NaN,4.754,90,12.372,965.826,0.001,338.796,0.114,1.098e7,20.32,324.293,0.01,0.115,0.005
0.48,8.491,404.731,38.523,38.675,78.864,79.165,0.764,1.417e-7,0.764,1.062e-5,3.421,6.9,0.499,-1.407,6.982,0,0,0,85,0,8.693e4,3.664e4,91.492,0.657,9.791,NaN,266.306,NaN,7742.23,9.097,12.516,0.38,0.259,0.014,0.107,0.422,NaN,NaN,NaN,NaN,NaN,NaN,NaN,NaN,4.754,90,12.369,965.782,0.001,338.795,0.116,1.12e7,20.32,324.293,0.01,0.117,0.005
0.49,8.881,405.121,39.312,39.466,78.786,79.087,0.799,1.452e-7,0.799,1.041e-5,3.49,6.893,0.499,-1.407,6.844,0,0,0,85,0,8.688e4,3.659e4,91.492,0.657,9.791,NaN,266.258,NaN,7731.605,9.089,12.952,0.38,0.259,0.014,0.107,0.42,NaN,NaN,NaN,NaN,NaN,NaN,NaN,NaN,4.754,90,12.367,965.736,0.001,338.793,0.119,1.143e7,20.32,324.293,0.01,0.119,0.005
0.5,9.278,405.518,40.099,40.257,78.708,79.008,0.834,1.487e-7,0.834,1.021e-5,3.559,6.886,0.499,-1.407,6.712,0,0,0,85,0,8.683e4,3.654e4,91.493,0.657,9.791,NaN,266.211,NaN,7720.98,9.082,13.396,0.379,0.258,0.014,0.107,0.418,NaN,NaN,NaN,NaN,NaN,NaN,NaN,NaN,4.754,90,12.364,965.69,0.001,338.792,0.121,1.165e7,20.32,324.293,0.01,0.122,0.005
0.51,9.683,405.923,40.882,41.043,77.967,78.265,0.87,1.522e-7,0.87,1.002e-5,3.628,6.821,0.499,-1.407,6.602,0,0,0,85,0,8.68e4,3.651e4,91.49,0.657,9.791,NaN,266.194,NaN,7654.163,9.006,13.852,0.378,0.257,0.014,0.107,0.416,NaN,NaN,NaN,NaN,NaN,NaN,NaN,NaN,4.766,90,12.362,965.642,0.001,338.79,0.123,1.187e7,20.32,324.293,0.01,0.123,0.005
0.52,10.095,406.335,41.658,41.822,77.226,77.521,0.907,1.557e-7,0.907,9.84e-6,3.696,6.756,0.499,-1.407,6.497,0,0,0,85,0,8.677e4,3.648e4,91.487,0.657,9.791,NaN,266.176,NaN,7587.347,8.931,14.311,0.378,0.256,0.014,0.107,0.415,NaN,NaN,NaN,NaN,NaN,NaN,NaN,NaN,4.777,90,12.359,965.594,0.001,338.788,0.125,1.209e7,20.32,324.293,0.01,0.125,0.005
0.53,10.516,406.756,42.427,42.594,76.485,76.777,0.944,1.592e-7,0.944,9.664e-6,3.763,6.692,0.499,-1.407,6.396,0,0,0,85,0,8.674e4,3.645e4,91.485,0.657,9.791,NaN,266.159,NaN,7520.53,8.855,14.774,0.377,0.255,0.014,0.107,0.413,NaN,NaN,NaN,NaN,NaN,NaN,NaN,NaN,4.789,90,12.356,965.544,0.001,338.787,0.128,1.231e7,20.32,324.293,0.01,0.128,0.005
0.54,10.944,407.184,43.192,43.362,76.526,76.818,0.982,1.627e-7,0.982,9.495e-6,3.83,6.695,0.499,-1.407,6.3,0,0,0,85,0,8.669e4,3.64e4,91.48,0.656,9.791,NaN,266.134,NaN,7520.53,8.86,15.241,0.376,0.255,0.014,0.107,0.411,NaN,NaN,NaN,NaN,NaN,NaN,NaN,NaN,4.801,90,12.353,965.494,0.001,338.785,0.13,1.253e7,20.32,324.293,0.01,0.13,0.006
0.55,11.38,407.62,43.958,44.13,76.557,76.86,1.021,1.662e-7,1.021,9.333e-6,3.897,6.818,0.499,-1.407,6.207,0,0,0,85,0,8.665e4,3.635e4,91.476,0.656,9.791,326.36,266.109,2.965,7520.53,8.865,15.716,0.376,0.254,0.014,0.107,0.41,1.645,4.878,-4.706e-4,0,0,0,0,0,4.813,90,12.35,965.443,0.001,338.783,0.132,1.275e7,20.32,324.293,0.015,0.132,0.006
0.565,12.048,408.288,45.109,45.286,76.988,77.292,1.08,2.024e-7,1.08,1.074e-5,3.999,6.849,0.499,-1.407,6.015,0,0.361,-2.889e-6,84.997,-3.582e-7,8.66e4,3.631e4,91.472,0.656,9.791,326.855,266.083,2.991,7554.565,8.91,16.417,0.375,0.253,0.014,0.108,0.407,1.585,4.741,-2.235e-4,0,0,0,0,2.345e-4,4.784,90,12.346,965.365,0.001,338.781,0.136,1.307e7,20.32,324.293,0.015,0.134,0.006
0.58,12.733,408.973,46.267,46.449,77.418,77.724,1.141,3.011e-7,1.141,1.513e-5,4.102,6.89,0.499,-1.407,5.826,0,0.73,8.003e-6,84.989,-1.283e-6,8.655e4,3.626e4,91.467,0.656,9.791,327.348,266.058,3.016,7588.6,8.955,17.136,0.374,0.252,0.014,0.108,0.404,1.527,4.604,-4.285e-4,0,0,0,0,9.118e-4,4.754,90,12.342,965.284,0.001,338.778,0.139,1.34e7,20.32,324.293,0.02,0.137,0.006
0.6,13.674,409.914,47.803,47.991,76.169,76.472,1.224,5.328e-7,1.224,2.494e-5,4.239,6.799,0.499,-1.407,5.579,0,1.233,-4.856e-6,84.97,-2.171e-6,8.646e4,3.617e4,91.459,0.655,9.791,328.001,266.009,3.051,7473.18,8.828,18.112,0.373,0.251,0.014,0.108,0.401,1.451,4.425,4.96e-4,0,0,0,0,0.002,4.715,90,12.336,965.174,0.001,338.774,0.144,1.383e7,20.32,324.293,0.03,0.139,0.006
0.63,15.142,411.382,50.084,50.281,75.885,76.187,1.354,1.102e-6,1.354,4.661e-5,4.443,6.78,0.499,-1.407,5.536,0,2.031,2.473e-5,84.921,1.149e-6,8.637e4,3.607e4,91.45,0.655,9.791,328.128,265.96,3.059,7442.24,8.801,19.818,0.372,0.25,0.014,0.108,0.4,1.438,4.395,5.847e-5,0,0,0,0,0.006,4.944,90,12.326,965.002,0.001,338.768,0.15,1.449e7,20.32,324.293,0.02,0.141,0.006
0.65,16.159,412.399,51.591,51.794,74.854,75.155,1.444,1.633e-6,1.444,6.479e-5,4.578,6.713,0.499,-1.407,5.495,0,2.601,6.028e-5,84.874,-4.674e-6,8.628e4,3.598e4,91.442,0.654,9.791,328.245,265.913,3.068,7346.45,8.697,21.018,0.372,0.25,0.014,0.108,0.4,1.426,4.365,1.245e-4,0,0,0,0,0.009,5.096,90,12.319,964.883,0.001,338.764,0.155,1.492e7,20.32,324.293,0.03,0.144,0.007
0.68,17.74,413.98,53.846,54.058,75.439,75.755,1.585,2.667e-6,1.585,9.643e-5,4.782,6.911,0.499,-1.407,5.062,0,3.481,5.118e-5,84.783,-1.381e-5,8.618e4,3.589e4,91.434,0.654,9.791,329.421,265.865,3.128,7391.92,8.76,22.647,0.372,0.249,0.014,0.108,0.396,1.297,4.04,-3.679e-4,0,0,0,0,0.015,4.983,90,12.309,964.697,0.001,338.758,0.162,1.556e7,20.32,324.293,0.02,0.147,0.007
0.7,18.832,415.072,55.364,55.583,76.423,76.754,1.682,3.518e-6,1.682,1.199e-4,4.922,7.125,0.499,-1.407,4.775,0,4.069,6.27e-5,84.708,-2.012e-5,8.609e4,3.58e4,91.425,0.653,9.791,330.22,265.818,3.169,7471.02,8.863,23.779,0.373,0.249,0.014,0.109,0.394,1.212,3.823,4.544e-4,0,0,0,0,0.02,4.907,90,12.302,964.569,0.001,338.754,0.166,1.598e7,20.32,324.293,0.03,0.149,0.007
0.73,20.528,416.768,57.642,57.87,75.398,75.746,1.833,5.046e-6,1.833,1.577e-4,5.138,7.253,0.499,-1.407,4.363,0,4.948,9.069e-6,84.572,-1.208e-5,8.6e4,3.571e4,91.417,0.653,9.791,331.396,265.771,3.23,7377.93,8.762,25.537,0.373,0.249,0.015,0.109,0.391,1.094,3.505,-4.762e-4,0,0,0,0,0.027,4.809,90,12.291,964.37,0.001,338.747,0.173,1.663e7,20.32,324.293,0.02,0.152,0.007
0.75,21.695,417.935,59.142,59.377,74.608,74.969,1.937,6.236e-6,1.937,1.845e-4,5.284,7.351,0.499,-1.407,4.09,0,5.528,5.965e-6,84.468,-6.432e-7,8.591e4,3.561e4,91.408,0.652,9.791,332.192,265.726,3.271,7304.48,8.684,26.729,0.373,0.249,0.015,0.109,0.389,1.016,3.292,-4.2e-4,0,0,0,0,0.032,4.743,90,12.283,964.233,0.001,338.743,0.177,1.705e7,20.32,324.293,0.03,0.154,0.008
0.78,23.503,419.743,61.379,61.626,74.543,74.933,2.099,8.291e-6,2.099,2.263e-4,5.509,7.641,0.499,-1.407,3.698,0,6.381,3.128e-5,84.289,2.02e-5,8.582e4,3.552e4,91.4,0.652,9.791,333.363,265.681,3.331,7295.33,8.683,28.568,0.373,0.249,0.015,0.109,0.387,0.908,2.983,1.558e-4,0,0,0,0,0.04,4.663,90,12.272,964.021,0.001,338.736,0.184,1.768e7,20.32,324.293,0.02,0.157,0.008
0.8,24.746,420.986,62.867,63.122,74.275,74.687,2.211,9.847e-6,2.211,2.552e-4,5.663,7.838,0.499,-1.407,3.436,0,6.936,5.821e-5,84.156,3.758e-5,8.573e4,3.543e4,91.391,0.651,9.791,334.164,265.637,3.372,7267.62,8.659,29.826,0.373,0.249,0.015,0.11,0.385,0.836,2.775,-3.358e-4,0,0,0,0,0.045,4.609,90,12.264,963.875,0.001,338.731,0.188,1.81e7,20.32,324.293,0.03,0.159,0.008
0.83,26.665,422.905,65.097,65.364,74.39,74.842,2.384,1.247e-5,2.384,2.997e-4,5.904,8.211,0.499,-1.407,3.09,0,7.743,1.568e-4,83.936,4.666e-5,8.564e4,3.534e4,91.383,0.651,9.791,335.245,265.593,3.428,7274.88,8.676,31.801,0.374,0.249,0.015,0.11,0.384,0.744,2.497,-3.012e-4,0,0,0,0,0.052,4.587,90,12.251,963.65,0.001,338.723,0.195,1.873e7,20.32,324.293,0.02,0.162,0.008
0.85,27.982,424.222,66.59,66.867,74.935,75.419,2.504,1.442e-5,2.504,3.3e-4,6.071,8.537,0.499,-1.407,2.856,0,8.262,1.291e-4,83.775,5.605e-5,8.555e4,3.525e4,91.374,0.65,9.791,335.991,265.549,3.467,7317.66,8.737,33.161,0.374,0.249,0.015,0.11,0.382,0.682,2.308,-8.724e-5,0,0,0,0,0.057,4.572,90,12.243,963.496,0.001,338.718,0.199,1.916e7,20.32,324.293,0.03,0.163,0.009
0.88,30.013,426.253,68.836,69.127,74.762,75.295,2.69,1.766e-5,2.69,3.761e-4,6.333,8.943,0.499,-1.407,2.551,0,9.01,1.649e-4,83.516,8.28e-5,8.545e4,3.516e4,91.366,0.65,9.791,336.986,265.506,3.518,7300.98,8.726,35.299,0.374,0.249,0.015,0.11,0.381,0.603,2.058,8.735e-5,0,0,0,0,0.063,4.611,90,12.229,963.258,0.001,338.71,0.206,1.98e7,20.32,324.293,0.02,0.165,0.009
0.9,31.405,427.645,70.324,70.625,74.09,74.656,2.818,2.003e-5,2.818,4.073e-4,6.515,9.171,0.499,-1.407,2.343,0,9.486,2.499e-4,83.331,1.006e-4,8.536e4,3.507e4,91.357,0.649,9.791,337.676,265.464,3.554,7239.91,8.662,36.756,0.374,0.249,0.015,0.111,0.38,0.55,1.887,2.554e-4,0,0,0,0,0.067,4.638,90,12.22,963.094,0.001,338.704,0.21,2.022e7,20.32,324.293,0.03,0.167,0.009
0.93,33.548,429.788,72.547,72.865,74.094,74.727,3.018,2.393e-5,3.018,4.544e-4,6.798,9.7,0.499,-1.407,1.908,0,10.137,3.304e-4,83.037,1.335e-4,8.527e4,3.498e4,91.349,0.649,9.791,339.142,265.422,3.628,7239.91,8.671,38.919,0.375,0.249,0.015,0.111,0.379,0.442,1.529,-8.308e-6,0,0,0,0,0.072,4.526,90,12.206,962.843,0.001,338.696,0.217,2.085e7,20.32,324.293,0.02,0.169,0.009
0.95,35.014,431.254,74.032,74.362,74.404,75.088,3.156,2.677e-5,3.156,4.86e-4,6.996,10.112,0.499,-1.407,1.62,0,10.513,3.922e-4,82.83,1.59e-4,8.518e4,3.489e4,91.34,0.648,9.791,340.14,265.381,3.679,7264.12,8.71,40.415,0.375,0.249,0.015,0.111,0.378,0.371,1.291,2.338e-4,0,0,0,0,0.075,4.452,90,12.197,962.671,0.001,338.69,0.221,2.127e7,20.32,324.293,0.03,0.171,0.01
0.98,37.268,433.508,76.274,76.623,75.062,75.825,3.37,3.139e-5,3.37,5.336e-4,7.308,10.728,0.499,-1.407,1.382,0,11.015,3.859e-4,82.507,2.185e-4,8.509e4,3.48e4,91.331,0.648,9.791,340.991,265.339,3.723,7320.89,8.787,42.865,0.375,0.249,0.015,0.111,0.378,0.314,1.092,2.47e-4,0,0,0,0,0.077,4.601,90,12.182,962.407,0.001,338.681,0.228,2.191e7,20.32,324.293,0.02,0.172,0.01
1,38.809,435.049,77.766,78.129,74.081,74.889,3.519,3.473e-5,3.519,5.656e-4,7.525,10.968,0.499,-1.407,1.218,0,11.317,3.632e-4,82.284,2.717e-4,8.5e4,3.471e4,91.314,0.648,9.791,341.581,265.333,3.752,7234.8,8.693,44.54,0.376,0.249,0.015,0.112,0.377,0.275,0.954,-4.035e-4,0,0,0,0,0.078,4.701,90,12.172,962.226,0.001,338.675,0.232,2.234e7,20.32,324.293,0.03,0.173,0.01
1.03,41.175,437.415,79.996,80.382,74.611,75.513,3.749,4.017e-5,3.749,6.138e-4,7.864,11.635,0.499,-1.407,0.931,0,11.705,6.417e-4,81.938,3.517e-4,8.491e4,3.462e4,91.305,0.647,9.791,342.633,265.293,3.806,7281.88,8.759,47.098,0.376,0.249,0.015,0.112,0.377,0.208,0.713,2.396e-4,0,0,0,0,0.079,4.796,90,12.157,961.949,0.001,338.666,0.239,2.298e7,20.32,324.293,0.02,0.175,0.01
1.05,42.79,439.03,81.488,81.89,74.624,75.59,3.909,4.408e-5,3.909,6.461e-4,8.101,12.048,0.499,-1.407,0.739,0,11.91,8.731e-4,81.702,4.024e-4,8.482e4,3.453e4,91.296,0.647,9.791,343.351,265.253,3.843,7281.88,8.768,48.863,0.376,0.249,0.015,0.112,0.377,0.164,0.552,1.017e-4,0,0,0,0,0.079,4.859,90,12.146,961.759,0.001,338.66,0.244,2.341e7,20.32,324.293,0.03,0.177,0.011
1.08,45.268,441.508,83.734,84.162,75.112,76.2,4.158,5.043e-5,4.158,6.95e-4,8.474,12.828,0.499,-1.407,0.255,0,12.085,0.003,81.342,4.764e-4,8.473e4,3.444e4,91.287,0.646,9.791,345.19,265.213,3.936,7327.35,8.832,51.525,0.377,0.249,0.015,0.113,0.377,0.056,0.141,-2.502e-4,0,0,0,0,0.077,4.658,90,12.13,961.468,0.001,338.65,0.25,2.404e7,20.32,324.293,0.02,0.179,0.011
1.1,46.958,443.198,85.236,85.682,75.009,76.177,4.33,5.499e-5,4.33,7.277e-4,8.735,13.291,0.499,-1.407,0.059,0,-12.088,0.016,81.1,5.199e-4,8.464e4,3.435e4,91.278,0.646,9.791,345.945,265.174,3.975,7318.74,8.832,53.387,0.377,0.249,0.016,0.113,0.377,0.013,0.125,2.555e-5,0,0,0,0,-0.075,4.524,90,12.119,961.27,0.001,338.643,0.255,2.447e7,20.32,324.293,0.03,0.18,0.011
1.13,49.549,445.789,87.482,87.958,74.732,76.016,4.598,6.237e-5,4.598,7.772e-4,9.143,13.913,0.499,-1.407,0.36,0,-11.946,0.003,80.739,5.882e-4,8.455e4,3.426e4,91.27,0.645,9.791,344.818,265.135,3.921,7299.1,8.817,56.326,0.377,0.248,0.016,0.113,0.378,0.079,0.378,-2.476e-4,0,0,0,0,-0.069,4.559,90,12.102,960.966,0.001,338.633,0.261,2.511e7,20.32,324.293,0.02,0.181,0.011
1.15,51.313,447.553,88.971,89.469,74.17,75.529,4.784,6.766e-5,4.784,8.105e-4,9.425,14.263,0.499,-1.407,0.552,0,-11.768,0.002,80.501,6.369e-4,8.446e4,3.417e4,91.261,0.645,9.791,344.109,265.097,3.888,7251.48,8.769,58.338,0.378,0.248,0.016,0.114,0.378,0.122,0.539,-1.208e-4,0,0,0,0,-0.065,4.582,90,12.091,960.759,0.001,338.626,0.266,2.554e7,20.32,324.293,0.03,0.182,0.011
1.18,54.016,450.256,91.199,91.731,74.355,75.847,5.073,7.62e-5,5.073,8.606e-4,9.863,14.972,0.499,-1.407,0.87,0,-11.36,0.001,80.154,7.221e-4,8.437e4,3.408e4,91.252,0.644,9.791,342.955,265.06,3.833,7272.46,8.804,61.442,0.378,0.248,0.016,0.114,0.379,0.195,0.803,-3.26e-4,0,0,0,0,-0.057,4.542,90,12.073,960.443,0.001,338.615,0.273,2.617e7,20.32,324.293,0.02,0.183,0.012
1.2,55.855,452.095,92.687,93.243,74.5,76.084,5.273,8.231e-5,5.273,8.943e-4,10.168,15.442,0.499,-1.407,1.068,0,-10.987,0.001,79.93,7.835e-4,8.428e4,3.399e4,91.243,0.644,9.791,342.251,265.022,3.801,7285.92,8.83,63.582,0.378,0.248,0.016,0.114,0.38,0.241,0.967,-1.685e-4,0,0,0,0,-0.052,4.515,90,12.061,960.227,0.001,338.608,0.277,2.66e7,20.32,324.293,0.03,0.184,0.012
1.23,58.669,454.909,94.92,95.515,74.376,76.081,5.585,9.214e-5,5.585,9.452e-4,10.64,16.015,0.499,-1.407,1.238,0,-10.306,0.001,79.611,8.755e-4,8.419e4,3.389e4,91.234,0.643,9.791,341.665,264.986,3.774,7279.98,8.832,66.876,0.379,0.248,0.016,0.115,0.381,0.281,1.103,-3.931e-4,0,0,0,0,-0.044,4.651,90,12.043,959.897,0.001,338.597,0.284,2.724e7,20.32,324.293,0.02,0.185,0.012
1.25,60.582,456.822,96.407,97.029,74.301,76.085,5.801,9.917e-5,5.801,9.795e-4,10.964,16.379,0.499,-1.407,1.338,0,-9.784,0.001,79.41,9.421e-4,8.41e4,3.38e4,91.224,0.643,9.791,341.329,264.95,3.759,7274.04,8.834,69.122,0.379,0.248,0.016,0.115,0.381,0.305,1.183,3.396e-4,0,0,0,0,-0.038,4.741,90,12.031,959.672,0.001,338.589,0.288,2.767e7,20.32,324.293,0.03,0.186,0.012
1.28,63.508,459.748,98.634,99.298,74.168,76.081,6.138,1.105e-4,6.138,0.001,11.464,16.956,0.499,-1.407,1.599,0,-8.866,9.861e-4,79.13,0.001,8.401e4,3.371e4,91.215,0.642,9.791,340.439,264.914,3.717,7268.1,8.837,72.585,0.38,0.248,0.016,0.115,0.382,0.368,1.396,-1.939e-5,0,0,0,0,-0.03,4.637,90,12.012,959.329,0.001,338.578,0.295,2.831e7,20.32,324.293,0.02,0.187,0.013
1.3,65.495,461.735,100.117,100.81,74.088,76.085,6.37,1.186e-4,6.37,0.001,11.806,17.315,0.499,-1.407,1.752,0,-8.148,8.62e-4,78.959,0.001,8.392e4,3.362e4,91.206,0.642,9.791,339.929,264.879,3.693,7262.17,8.839,74.946,0.38,0.248,0.016,0.116,0.383,0.405,1.521,4.86e-4,0,0,0,0,-0.024,4.568,90,11.999,959.096,0.001,338.57,0.3,2.873e7,20.32,324.293,0.03,0.189,0.013
1.33,68.532,464.772,102.337,103.078,73.965,76.078,6.732,1.315e-4,6.732,0.001,12.333,17.809,0.499,-1.407,1.962,0,-6.916,7.8e-4,78.733,0.001,8.383e4,3.353e4,91.197,0.641,9.791,339.241,264.844,3.661,7256.23,8.841,78.559,0.38,0.248,0.016,0.116,0.385,0.457,1.69,1.903e-4,0,0,0,0,-0.017,4.435,90,11.979,958.74,0.001,338.558,0.306,2.936e7,20.32,324.293,0.02,0.19,0.013
1.35,70.594,466.834,103.816,104.589,73.896,76.08,6.983,1.408e-4,6.983,0.001,12.693,18.099,0.499,-1.407,2.076,0,-5.996,6.662e-4,78.604,0.001,8.374e4,3.344e4,91.187,0.641,9.791,338.874,264.81,3.645,7250.29,8.843,81.008,0.381,0.248,0.016,0.117,0.385,0.486,1.782,-4.769e-4,0,0,0,0,-0.012,4.346,90,11.966,958.498,0.001,338.55,0.311,2.978e7,20.32,324.293,0.03,0.191,0.013
1.38,73.741,469.981,106.032,106.855,73.805,76.067,7.372,1.556e-4,7.372,0.001,13.241,18.413,0.499,-1.407,2.13,0,-4.511,6.009e-4,78.446,0.001,8.365e4,3.335e4,91.178,0.641,9.791,338.72,264.777,3.639,7244.35,8.846,84.691,0.381,0.248,0.017,0.117,0.386,0.499,1.824,-3.181e-4,0,0,0,0,-0.007,4.359,90,11.945,958.129,0.001,338.538,0.317,3.042e7,20.32,324.293,0.02,0.192,0.014
1.4,75.877,472.117,107.507,108.365,73.761,76.064,7.64,1.661e-4,7.64,0.001,13.61,18.573,0.499,-1.407,2.141,0,-3.472,5.619e-4,78.366,0.001,8.356e4,3.326e4,91.168,0.64,9.791,338.702,264.743,3.64,7238.42,8.848,87.171,0.382,0.248,0.017,0.117,0.387,0.502,1.831,1.245e-4,0,0,0,0,-0.004,4.367,90,11.931,957.879,0.001,338.529,0.322,3.084e7,20.32,324.293,0.03,0.193,0.014
1.43,79.135,475.375,109.719,110.63,73.704,76.045,8.057,1.829e-4,8.057,0.001,14.17,18.725,0.499,-1.407,2.115,0,-1.863,6.024e-4,78.286,0.001,8.347e4,3.317e4,91.159,0.64,9.791,338.815,264.711,3.647,7232.48,8.85,90.921,0.382,0.247,0.017,0.118,0.387,0.496,1.81,-5.318e-6,0,0,0,0,-0.001,4.386,90,11.91,957.496,0.001,338.516,0.329,3.148e7,20.32,324.293,0.02,0.194,0.014
1.45,81.344,477.584,111.193,112.14,73.684,76.037,8.344,1.948e-4,8.344,0.001,14.545,18.77,0.499,-1.407,2.072,0,-0.772,5.638e-4,78.259,0.002,8.338e4,3.308e4,91.158,0.639,9.791,338.976,264.65,3.658,7226.54,8.853,93.44,0.382,0.247,0.017,0.118,0.387,0.485,1.775,-1.565e-4,0,0,0,0,-1.778e-4,4.399,90,11.896,957.237,0.001,338.508,0.333,3.19e7,20.32,324.293,0.03,0.196,0.014
1.48,84.713,480.953,113.403,114.405,73.657,76.013,8.789,2.138e-4,8.789,0.001,15.109,18.776,0.499,-1.407,2.014,0,0.884,5.42e-4,78.261,0.002,8.329e4,3.299e4,91.148,0.639,9.791,339.198,264.619,3.67,7220.61,8.855,97.268,0.383,0.247,0.017,0.119,0.387,0.471,1.728,2.606e-4,0,0,0,0,2.238e-4,4.327,90,11.874,956.842,0.001,338.494,0.34,3.253e7,20.32,324.293,0.02,0.197,0.015
1.5,86.996,483.236,114.876,115.915,73.659,76.001,9.095,2.272e-4,9.095,0.001,15.484,18.721,0.499,-1.407,1.949,0,1.99,4.87e-4,78.29,0.002,8.32e4,3.29e4,91.138,0.638,9.791,339.435,264.588,3.683,7214.67,8.857,99.836,0.383,0.247,0.017,0.119,0.388,0.455,1.675,2.781e-4,0,0,0,0,0.001,4.279,90,11.859,956.575,0.001,338.485,0.344,3.295e7,20.32,324.293,0.03,0.198,0.015
1.53,90.475,486.715,117.086,118.18,73.675,75.968,9.568,2.485e-4,9.568,0.001,16.043,18.525,0.499,-1.407,1.79,0,3.61,6.017e-4,78.374,0.002,8.311e4,3.281e4,91.129,0.638,9.791,340.001,264.558,3.713,7208.73,8.859,103.709,0.384,0.247,0.017,0.12,0.388,0.416,1.54,-3.394e-4,0,0,0,0,0.004,4.257,90,11.836,956.166,0.001,338.472,0.351,3.359e7,20.32,324.293,0.02,0.199,0.015
1.55,92.832,489.072,118.56,119.69,73.705,75.951,9.892,2.635e-4,9.892,0.002,16.411,18.335,0.499,-1.407,1.661,0,4.64,5.802e-4,78.457,0.002,8.302e4,3.272e4,91.119,0.637,9.791,340.461,264.528,3.737,7202.79,8.862,106.317,0.384,0.247,0.017,0.12,0.387,0.384,1.43,4.442e-4,0,0,0,0,0.006,4.243,90,11.821,955.89,0.001,338.462,0.356,3.401e7,20.32,324.293,0.03,0.201,0.015
1.58,96.422,492.662,120.772,121.956,73.759,75.911,10.393,2.873e-4,10.393,0.002,16.956,17.947,0.499,-1.407,1.421,0,6.064,6.7e-4,78.617,0.002,8.293e4,3.264e4,91.109,0.637,9.791,341.323,264.499,3.781,7196.86,8.864,110.274,0.385,0.247,0.018,0.12,0.387,0.326,1.224,3.385e-4,0,0,0,0,0.009,4.256,90,11.798,955.469,0.001,338.448,0.362,3.464e7,20.32,324.293,0.02,0.202,0.016
1.6,98.852,495.092,122.248,123.467,73.812,75.889,10.735,3.041e-4,10.735,0.002,17.312,17.637,0.499,-1.407,1.243,0,6.909,6.148e-4,78.747,0.002,8.284e4,3.255e4,91.099,0.636,9.791,341.969,264.47,3.814,7190.92,8.866,112.955,0.385,0.247,0.018,0.121,0.387,0.284,1.07,-1.455e-4,0,0,0,0,0.012,4.265,90,11.782,955.184,0.001,338.439,0.367,3.506e7,20.32,324.293,0.03,0.203,0.016
1.63,102.553,498.793,124.463,125.734,73.905,75.841,11.262,3.305e-4,11.262,0.002,17.832,17.025,0.499,-1.407,0.867,0,7.943,7.905e-4,78.971,0.002,8.275e4,3.246e4,91.089,0.636,9.791,343.349,264.442,3.883,7184.98,8.868,117.071,0.386,0.247,0.018,0.121,0.387,0.195,0.743,2.711e-4,0,0,0,0,0.015,4.477,90,11.758,954.75,0.001,338.424,0.374,3.57e7,20.32,324.293,0.02,0.204,0.016
1.65,105.057,501.297,125.942,127.246,73.979,75.814,11.622,3.491e-4,11.622,0.002,18.168,16.582,0.499,-1.407,0.609,0,8.437,9.182e-4,79.135,0.002,8.266e4,3.237e4,91.078,0.635,9.791,344.316,264.414,3.932,7179.04,8.871,119.906,0.386,0.247,0.018,0.122,0.387,0.136,0.518,-1.948e-4,0,0,0,0,0.016,4.619,90,11.742,954.463,0.001,338.414,0.378,3.613e7,20.32,324.293,0.03,0.205,0.016
1.68,108.868,505.108,128.163,129.513,74.07,75.765,12.175,3.784e-4,12.175,0.002,18.656,15.936,0.499,-1.407,0.288,0,8.892,9.478e-4,79.396,0.002,8.257e4,3.228e4,91.068,0.635,9.791,345.553,264.387,3.994,7173.11,8.873,124.269,0.387,0.246,0.018,0.122,0.387,0.064,0.236,-4.04e-4,0,0,0,0,0.018,4.673,90,11.717,954.038,0.001,338.399,0.385,3.676e7,20.32,324.293,0.02,0.206,0.017
1.7,111.446,507.686,129.645,131.025,74.136,75.738,12.551,3.989e-4,12.551,0.002,18.97,15.491,0.499,-1.407,0.074,0,9.01,0.002,79.575,0.003,8.248e4,3.219e4,91.058,0.635,9.791,346.392,264.36,4.037,7167.17,8.875,127.267,0.387,0.246,0.018,0.123,0.387,0.016,0.048,3.697e-4,0,0,0,0,0.018,4.71,90,11.7,953.75,0.001,338.389,0.389,3.718e7,20.32,324.293,0.03,0.207,0.017
1.73,115.369,511.609,131.87,133.293,74.219,75.687,13.127,4.312e-4,13.127,0.002,19.425,14.831,0.499,-1.407,0.217,0,-8.904,-1.752e-4,79.845,0.003,8.239e4,3.21e4,91.048,0.634,9.791,345.87,264.334,4.013,7161.23,8.877,131.881,0.388,0.246,0.018,0.123,0.388,0.048,0.209,-1.041e-4,0,0,0,0,-0.017,4.713,90,11.675,953.311,0.001,338.374,0.396,3.781e7,20.32,324.293,0.02,0.208,0.017
1.75,118.021,514.261,133.355,134.805,74.277,75.659,13.519,4.537e-4,13.519,0.002,19.717,14.393,0.499,-1.407,0.403,0,-8.648,-4.458e-4,80.02,0.003,8.23e4,3.201e4,91.037,0.634,9.791,345.19,264.308,3.98,7155.29,8.88,135.042,0.389,0.246,0.019,0.124,0.389,0.089,0.371,-4.009e-4,0,0,0,0,-0.015,4.715,90,11.657,953.015,0.001,338.363,0.401,3.823e7,20.32,324.293,0.03,0.209,0.017
1.78,122.056,518.296,135.585,137.072,74.345,75.608,14.116,4.892e-4,14.116,0.002,20.139,13.764,0.499,-1.407,0.649,0,-7.996,-4.733e-4,80.271,0.003,8.222e4,3.192e4,91.027,0.633,9.791,344.303,264.283,3.938,7149.36,8.882,139.887,0.389,0.246,0.019,0.124,0.39,0.145,0.586,-5.958e-5,0,0,0,0,-0.013,4.692,90,11.631,952.564,0.001,338.347,0.407,3.886e7,20.32,324.293,0.02,0.211,0.018
1.8,124.782,521.022,137.072,138.583,74.389,75.581,14.522,5.14e-4,14.522,0.002,20.411,13.37,0.499,-1.407,0.796,0,-7.392,-6.644e-4,80.425,0.003,8.213e4,3.183e4,91.016,0.633,9.791,343.784,264.258,3.914,7143.42,8.884,143.187,0.39,0.246,0.019,0.125,0.39,0.18,0.713,4.297e-4,0,0,0,0,-0.011,4.676,90,11.613,952.26,0.001,338.337,0.412,3.928e7,20.32,324.293,0.03,0.213,0.018
1.83,128.928,525.168,139.304,140.849,74.433,75.532,15.14,5.528e-4,15.14,0.002,20.804,12.837,0.499,-1.407,0.982,0,-6.252,-6.57e-4,80.63,0.003,8.204e4,3.174e4,91.005,0.632,9.791,343.143,264.234,3.883,7137.48,8.886,148.218,0.39,0.246,0.019,0.125,0.391,0.223,0.874,3.848e-4,0,0,0,0,-0.007,4.643,90,11.586,951.797,0.001,338.32,0.419,3.99e7,20.32,324.293,0.02,0.215,0.018
1.85,131.729,527.969,140.793,142.359,74.459,75.506,15.559,5.798e-4,15.559,0.002,21.057,12.529,0.499,-1.407,1.082,0,-5.353,-4.904e-4,80.746,0.004,8.195e4,3.166e4,91.002,0.632,9.791,342.806,264.185,3.869,7131.55,8.889,151.619,0.391,0.246,0.019,0.126,0.392,0.247,0.961,-2.021e-4,0,0,0,0,-0.005,4.621,90,11.568,951.484,0.001,338.309,0.423,4.032e7,20.32,324.293,0.03,0.216,0.018
1.88,135.986,532.226,143.027,144.623,74.472,75.458,16.196,6.221e-4,16.196,0.002,21.427,12.154,0.499,-1.407,1.193,0,-3.828,-7.664e-4,80.885,0.004,8.186e4,3.157e4,90.992,0.631,9.791,342.447,264.162,3.853,7125.61,8.891,156.776,0.391,0.246,0.019,0.127,0.393,0.273,1.055,-7.471e-5,0,0,0,0,-0.003,4.586,90,11.541,951.008,0.001,338.292,0.43,4.094e7,20.32,324.293,0.02,0.218,0.019
1.9,138.861,535.101,144.517,146.132,74.477,75.433,16.627,6.515e-4,16.627,0.002,21.668,11.972,0.499,-1.407,1.238,0,-2.718,-9.259e-4,80.95,0.004,8.177e4,3.148e4,90.981,0.631,9.791,342.31,264.139,3.847,7119.67,8.893,160.241,0.392,0.245,0.02,0.127,0.394,0.284,1.094,4.615e-4,0,0,0,0,-0.001,4.563,90,11.522,950.687,0.001,338.281,0.434,4.136e7,20.32,324.293,0.03,0.219,0.019
1.93,143.23,539.47,146.751,148.394,74.458,75.386,17.283,6.974e-4,17.283,0.002,22.025,11.796,0.499,-1.407,1.272,0,-0.952,-6.233e-4,81.006,0.004,8.168e4,3.139e4,90.97,0.63,9.791,342.225,264.117,3.844,7113.73,8.895,165.491,0.393,0.245,0.02,0.128,0.395,0.292,1.124,4.122e-4,0,0,0,0,-1.547e-4,4.556,90,11.493,950.199,0.001,338.264,0.441,4.198e7,20.32,324.293,0.02,0.221,0.019
1.95,146.18,542.42,148.24,149.902,74.439,75.363,17.725,7.293e-4,17.725,0.002,22.26,11.76,0.499,-1.407,1.265,0,0.266,-7.117e-4,81.012,0.004,8.16e4,3.13e4,90.958,0.63,9.791,342.276,264.096,3.847,7107.8,8.897,169.007,0.393,0.245,0.02,0.128,0.395,0.291,1.119,2.894e-5,0,0,0,0,1.182e-5,4.552,90,11.474,949.869,0.001,338.252,0.445,4.239e7,20.32,324.293,0.03,0.222,0.019
1.98,150.661,546.901,150.472,152.162,74.382,75.318,18.398,7.791e-4,18.398,0.002,22.614,11.836,0.499,-1.407,1.203,0,2.094,-7.658e-4,80.977,0.004,8.151e4,3.121e4,90.947,0.629,9.79,342.529,264.074,3.861,7101.86,8.9,174.289,0.394,0.245,0.02,0.129,0.396,0.276,1.066,4.193e-4,0,0,0,0,7.118e-4,4.532,90,11.445,949.368,0.001,338.235,0.452,4.301e7,20.32,324.293,0.02,0.223,0.02
2,153.685,549.925,151.959,153.668,74.337,75.295,18.853,8.136e-4,18.853,0.002,22.852,11.97,0.499,-1.407,1.134,0,3.275,-6.558e-4,80.923,0.004,8.142e4,3.113e4,90.936,0.629,9.79,342.801,264.054,3.875,7095.92,8.902,177.828,0.394,0.245,0.02,0.129,0.396,0.26,1.005,-3.053e-4,0,0,0,0,0.002,4.519,90,11.425,949.03,0.001,338.223,0.457,4.343e7,20.32,324.293,0.03,0.224,0.02
2.03,158.278,554.518,154.188,155.926,74.248,75.251,19.544,8.673e-4,19.544,0.003,23.214,12.245,0.499,-1.407,1.025,0,4.955,-5.946e-4,80.799,0.004,8.133e4,3.104e4,90.924,0.629,9.79,343.228,264.034,3.897,7089.98,8.904,183.256,0.395,0.245,0.02,0.13,0.396,0.234,0.909,-2.293e-4,0,0,0,0,0.004,4.598,90,11.396,948.517,0.001,338.205,0.463,4.405e7,20.32,324.293,0.02,0.226,0.02
2.05,161.376,557.616,155.673,157.431,74.181,75.228,20.011,9.045e-4,20.011,0.003,23.462,12.507,0.499,-1.407,0.927,0,5.99,-3.649e-4,80.69,0.004,8.124e4,3.095e4,90.913,0.628,9.79,343.605,264.014,3.917,7084.05,8.906,186.905,0.396,0.245,0.021,0.13,0.397,0.211,0.821,1.82e-4,0,0,0,0,0.005,4.651,90,11.375,948.171,0.001,338.192,0.468,4.446e7,20.32,324.293,0.03,0.228,0.02
2.08,166.08,562.32,157.896,159.686,74.039,75.188,20.72,9.624e-4,20.72,0.003,23.846,13.094,0.499,-1.407,0.68,0,7.299,-3.392e-5,80.49,0.004,8.116e4,3.086e4,90.901,0.628,9.79,344.539,263.995,3.964,7078.11,8.908,192.298,0.397,0.245,0.021,0.131,0.397,0.154,0.602,-4.751e-4,0,0,0,0,0.008,4.538,90,11.345,947.646,0.001,338.174,0.474,4.508e7,20.32,324.293,0.02,0.229,0.021
2.1,169.252,565.492,159.376,161.189,73.939,75.169,21.2,0.001,21.2,0.003,24.112,13.542,0.499,-1.407,0.501,0,7.952,-7.505e-5,80.337,0.004,8.107e4,3.077e4,90.89,0.627,9.79,345.226,263.976,3.999,7072.17,8.911,195.967,0.397,0.244,0.021,0.132,0.397,0.113,0.442,3.929e-4,0,0,0,0,0.009,4.463,90,11.324,947.291,0.001,338.161,0.479,4.548e7,20.32,324.293,0.03,0.23,0.021
2.13,174.067,570.307,161.592,163.442,73.788,75.127,21.93,0.001,21.93,0.003,24.527,14.119,0.499,-1.407,0.329,0,8.653,-7.231e-4,80.087,0.004,8.098e4,3.069e4,90.878,0.627,9.79,345.911,263.958,4.033,7066.24,8.913,201.794,0.398,0.244,0.021,0.132,0.398,0.073,0.286,-8.47e-5,0,0,0,0,0.011,4.67,90,11.293,946.753,0.001,338.142,0.486,4.611e7,20.32,324.293,0.02,0.231,0.021
2.15,177.314,573.554,163.066,164.943,73.685,75.105,22.423,0.001,22.423,0.003,24.813,14.535,0.499,-1.407,0.206,0,8.955,-0.001,79.911,0.004,8.089e4,3.06e4,90.866,0.626,9.79,346.4,263.941,4.058,7060.3,8.915,205.75,0.398,0.244,0.021,0.133,0.399,0.046,0.176,2.651e-4,0,0,0,0,0.011,4.809,90,11.272,946.391,0.001,338.13,0.49,4.653e7,20.32,324.293,0.03,0.232,0.021
2.18,182.239,578.479,165.274,167.193,73.504,75.064,23.174,0.001,23.174,0.003,25.26,15.224,0.499,-1.407,0.011,0,-9.109,-0.012,79.639,0.004,8.08e4,3.051e4,90.854,0.626,9.79,347.2,263.924,4.098,7054.36,8.917,211.756,0.399,0.244,0.022,0.134,0.399,0.002,0.021,-2.52e-4,0,0,0,0,-0.011,4.927,90,11.24,945.84,0.001,338.11,0.497,4.715e7,20.32,324.293,0.02,0.233,0.021
2.2,185.559,581.799,166.743,168.692,73.385,75.044,23.682,0.001,23.682,0.003,25.569,15.689,0.499,-1.407,0.152,0,-8.992,-2.006e-4,79.457,0.004,8.072e4,3.042e4,90.842,0.625,9.79,346.674,263.907,4.073,7048.42,8.919,215.849,0.4,0.244,0.022,0.134,0.4,0.034,0.148,3.356e-4,0,0,0,0,-0.011,5.006,90,11.218,945.469,0.001,338.097,0.501,4.756e7,20.32,324.293,0.03,0.235,0.022
2.23,190.594,586.834,168.942,170.938,73.187,75.005,24.456,0.001,24.456,0.003,26.05,16.412,0.499,-1.407,0.38,0,-8.46,7.639e-4,79.195,0.005,8.063e4,3.034e4,90.837,0.625,9.79,345.854,263.868,4.035,7042.49,8.921,222.085,0.401,0.244,0.022,0.135,0.401,0.085,0.354,-2.43e-4,0,0,0,0,-0.009,5.034,90,11.186,944.907,0.001,338.077,0.508,4.817e7,20.32,324.293,0.02,0.242,0.022
2.25,193.988,590.228,170.404,172.435,73.062,74.984,24.981,0.001,24.981,0.003,26.383,16.868,0.499,-1.407,0.517,0,-7.865,5.658e-4,79.031,0.005,8.054e4,3.025e4,90.825,0.625,9.79,345.374,263.853,4.012,7036.55,8.924,226.327,0.401,0.244,0.022,0.135,0.402,0.117,0.476,-4.884e-4,0,0,0,0,-0.008,5.053,90,11.164,944.528,0.001,338.064,0.513,4.858e7,20.32,324.293,0.03,0.243,0.022
2.28,199.133,595.373,172.593,174.677,72.87,74.943,25.78,0.001,25.78,0.003,26.899,17.505,0.499,-1.407,0.708,0,-6.627,3.184e-4,78.813,0.005,8.045e4,3.016e4,90.813,0.624,9.79,344.714,263.838,3.98,7030.61,8.926,232.781,0.402,0.243,0.023,0.136,0.403,0.161,0.646,4.159e-4,0,0,0,0,-0.005,5.025,90,11.13,943.953,0.001,338.044,0.519,4.919e7,20.32,324.293,0.02,0.244,0.022
2.3,202.599,598.839,174.049,176.17,72.758,74.92,26.321,0.001,26.321,0.003,27.253,17.866,0.499,-1.407,0.81,0,-5.592,2.335e-4,78.69,0.005,8.037e4,3.007e4,90.8,0.624,9.79,344.376,263.823,3.964,7024.67,8.928,237.14,0.403,0.243,0.023,0.137,0.404,0.185,0.737,-4.512e-4,0,0,0,0,-0.004,5.006,90,11.108,943.566,0.001,338.03,0.524,4.96e7,20.32,324.293,0.03,0.245,0.023
2.33,207.853,604.093,176.23,178.408,72.597,74.874,27.147,0.002,27.147,0.003,27.796,18.326,0.499,-1.407,0.945,0,-3.758,4.662e-4,78.549,0.005,8.028e4,2.999e4,90.788,0.623,9.79,343.937,263.809,3.943,7018.74,8.93,243.72,0.404,0.243,0.023,0.138,0.405,0.217,0.857,-2.929e-4,0,0,0,0,-0.002,4.886,90,11.073,942.979,0.001,338.009,0.53,5.02e7,20.32,324.293,0.02,0.246,0.023
2.35,211.392,607.632,177.681,179.899,72.514,74.845,27.707,0.002,27.707,0.003,28.165,18.534,0.499,-1.407,1,0,-2.383,3.198e-4,78.488,0.005,8.019e4,2.99e4,90.775,0.623,9.79,343.772,263.795,3.936,7012.8,8.932,248.128,0.404,0.243,0.023,0.138,0.406,0.23,0.906,-2.64e-4,0,0,0,0,-6.599e-4,4.806,90,11.05,942.583,0.001,337.995,0.535,5.06e7,20.32,324.293,0.03,0.248,0.023
2.38,216.755,612.995,179.855,182.134,72.432,74.783,28.56,0.002,28.56,0.003,28.722,18.602,0.499,-1.407,0.989,0,-0.222,3.188e-5,78.448,0.005,8.01e4,2.981e4,90.762,0.622,9.79,343.864,263.782,3.941,7006.86,8.934,254.762,0.405,0.243,0.024,0.139,0.406,0.228,0.898,3.472e-4,0,0,0,0,-5.611e-6,4.814,90,11.016,941.984,0.001,337.974,0.541,5.12e7,20.32,324.293,0.02,0.249,0.023
2.4,220.367,616.607,181.303,183.623,72.408,74.742,29.138,0.002,29.138,0.003,29.094,18.532,0.499,-1.407,0.947,0,1.206,-3.283e-4,78.458,0.005,8.002e4,2.972e4,90.749,0.622,9.79,344.053,263.77,3.951,7000.92,8.937,259.188,0.406,0.243,0.024,0.14,0.407,0.218,0.86,2.872e-4,0,0,0,0,1.622e-4,4.82,90,10.992,941.58,0.001,337.96,0.546,5.161e7,20.32,324.293,0.03,0.25,0.024
2.43,225.839,622.079,183.475,185.855,72.389,74.668,30.019,0.002,30.019,0.004,29.647,18.31,0.499,-1.407,0.864,0,3.257,-5.788e-4,78.526,0.005,7.993e4,2.964e4,90.736,0.621,9.79,344.404,263.758,3.969,6994.99,8.939,265.829,0.407,0.243,0.024,0.14,0.408,0.198,0.786,-2.921e-5,0,0,0,0,0.001,4.723,90,10.956,940.969,0.001,337.939,0.552,5.221e7,20.32,324.293,0.02,0.252,0.024
2.45,229.523,625.763,184.923,187.342,72.404,74.62,30.616,0.002,30.616,0.004,30.011,18.052,0.499,-1.407,0.778,0,4.52,-8.325e-4,78.604,0.005,7.984e4,2.955e4,90.723,0.621,9.79,344.754,263.746,3.987,6989.05,8.941,270.275,0.408,0.242,0.024,0.141,0.408,0.178,0.708,-5.916e-5,0,0,0,0,0.002,4.658,90,10.933,940.558,0.001,337.924,0.557,5.261e7,20.32,324.293,0.03,0.253,0.024
2.48,235.103,631.343,187.096,189.573,72.441,74.535,31.524,0.002,31.524,0.004,30.545,17.54,0.499,-1.407,0.622,0,6.171,-0.002,78.765,0.005,7.976e4,2.946e4,90.71,0.62,9.79,345.381,263.735,4.018,6983.11,8.943,276.987,0.408,0.242,0.025,0.142,0.409,0.142,0.566,-2.3e-4,0,0,0,0,0.004,4.513,90,10.896,939.934,0.001,337.902,0.563,5.32e7,20.32,324.293,0.02,0.255,0.024
2.5,238.859,635.099,188.545,191.059,72.488,74.48,32.139,0.002,32.139,0.004,30.892,17.113,0.499,-1.407,0.496,0,7.062,-0.002,78.897,0.005,7.967e4,2.938e4,90.697,0.62,9.79,345.886,263.724,4.043,6977.18,8.945,281.516,0.409,0.242,0.025,0.142,0.409,0.113,0.45,2.654e-4,0,0,0,0,0.005,4.416,90,10.872,939.514,0.001,337.887,0.568,5.359e7,20.32,324.293,0.03,0.256,0.025
2.53,244.548,640.788,190.721,193.287,72.564,74.387,33.073,0.002,33.073,0.004,31.394,16.366,0.499,-1.407,0.28,0,8.005,-0.005,79.125,0.005,7.958e4,2.929e4,90.683,0.62,9.79,346.752,263.714,4.087,6971.24,8.947,288.43,0.41,0.242,0.025,0.143,0.41,0.063,0.251,9.154e-5,0,0,0,0,0.006,4.284,90,10.835,938.879,0.001,337.865,0.574,5.419e7,20.32,324.293,0.02,0.257,0.025
2.55,248.377,644.617,192.172,194.772,72.625,74.33,33.704,0.002,33.704,0.004,31.716,15.826,0.499,-1.407,0.127,0,8.334,-0.011,79.288,0.005,7.95e4,2.92e4,90.67,0.619,9.79,347.365,263.704,4.117,6965.3,8.949,293.137,0.411,0.242,0.025,0.144,0.411,0.028,0.11,1.729e-4,0,0,0,0,0.007,4.196,90,10.81,938.451,0.001,337.85,0.579,5.458e7,20.32,324.293,0.02,0.259,0.025
2.57,252.235,648.475,193.626,196.256,72.693,74.27,34.342,0.002,34.342,0.004,32.027,15.224,0.499,-1.407,0.05,0,-8.385,-0.031,79.456,0.005,7.941e4,2.912e4,90.656,0.619,9.79,347.739,263.695,4.136,6959.36,8.952,297.982,0.412,0.242,0.026,0.144,0.412,0.011,0.054,4.912e-4,0,0,0,0,-0.007,4.189,90,10.785,938.02,0.001,337.835,0.583,5.498e7,20.32,324.293,0.03,0.259,0.025
2.6,258.077,654.317,195.808,198.482,72.778,74.175,35.309,0.002,35.309,0.004,32.47,14.327,0.499,-1.407,0.303,0,-7.9,-0.005,79.702,0.005,7.932e4,2.903e4,90.649,0.618,9.79,346.822,263.666,4.092,6953.43,8.954,305.439,0.413,0.241,0.026,0.145,0.413,0.069,0.287,1.39e-4,0,0,0,0,-0.006,4.179,90,10.747,937.367,0.001,337.812,0.59,5.557e7,20.32,324.293,0.02,0.26,0.026
2.62,262.007,658.247,197.264,199.964,72.825,74.118,35.961,0.002,35.961,0.004,32.751,13.784,0.499,-1.407,0.446,0,-7.222,-0.004,79.854,0.005,7.924e4,2.894e4,90.635,0.618,9.79,346.333,263.657,4.069,6947.49,8.956,310.494,0.413,0.241,0.026,0.146,0.414,0.101,0.418,-2.554e-4,0,0,0,0,-0.005,4.138,90,10.721,936.928,0.001,337.796,0.594,5.597e7,20.32,324.293,0.03,0.261,0.026
2.65,267.958,664.198,199.449,202.186,72.865,74.028,36.95,0.003,36.95,0.004,33.153,13.072,0.499,-1.407,0.623,0,-5.751,-0.002,80.05,0.005,7.915e4,2.886e4,90.621,0.617,9.79,345.748,263.65,4.04,6941.55,8.958,318.195,0.414,0.241,0.027,0.147,0.415,0.143,0.58,-3.701e-4,0,0,0,0,-0.003,4.076,90,10.683,936.263,0.001,337.773,0.601,5.656e7,20.32,324.293,0.02,0.262,0.026
2.67,271.962,668.202,200.907,203.666,72.871,73.976,37.616,0.003,37.616,0.004,33.411,12.737,0.499,-1.407,0.691,0,-4.535,-0.002,80.153,0.005,7.907e4,2.877e4,90.607,0.617,9.79,345.544,263.643,4.031,6935.61,8.96,323.315,0.415,0.241,0.027,0.147,0.416,0.159,0.642,3.156e-4,0,0,0,0,-0.002,3.965,90,10.657,935.816,0.001,337.757,0.605,5.695e7,20.32,324.293,0.03,0.263,0.026
2.7,278.022,674.262,203.092,205.884,72.841,73.892,38.624,0.003,38.624,0.004,33.788,12.413,0.499,-1.407,0.743,0,-2.502,-0.002,80.259,0.005,7.898e4,2.869e4,90.593,0.616,9.79,345.424,263.636,4.025,6929.68,8.962,331.027,0.416,0.241,0.027,0.148,0.417,0.171,0.691,2.367e-4,0,0,0,0,-5.569e-4,3.797,90,10.617,935.139,0.001,337.733,0.612,5.753e7,20.32,324.293,0.02,0.264,0.026
2.72,282.098,678.338,204.549,207.361,72.816,73.84,39.302,0.003,39.302,0.004,34.034,12.254,0.499,-1.407,0.773,0,-1.05,-0.002,80.294,0.006,7.889e4,2.86e4,90.579,0.616,9.79,345.364,263.63,4.022,6923.74,8.964,336.3,0.417,0.241,0.027,0.149,0.418,0.179,0.718,-2.187e-4,0,0,0,0,-9.664e-5,3.8,90,10.591,934.683,0.001,337.717,0.616,5.792e7,20.32,324.293,0.03,0.265,0.027
2.75,288.267,684.507,206.732,209.575,72.734,73.755,40.328,0.003,40.328,0.004,34.401,12.229,0.499,-1.407,0.762,0,1.204,-0.001,80.292,0.006,7.881e4,2.851e4,90.564,0.616,9.79,345.479,263.624,4.028,6917.8,8.966,344.216,0.418,0.24,0.028,0.15,0.419,0.176,0.709,1.657e-5,0,0,0,0,1.246e-4,3.803,90,10.551,933.994,0.001,337.693,0.623,5.851e7,20.32,324.293,0.02,0.266,0.027
2.77,292.416,688.656,208.186,211.05,72.665,73.704,41.019,0.003,41.019,0.004,34.646,12.33,0.499,-1.407,0.729,0,2.686,-0.001,80.253,0.006,7.872e4,2.843e4,90.549,0.615,9.79,345.649,263.619,4.037,6911.87,8.968,349.544,0.419,0.24,0.028,0.15,0.42,0.168,0.679,-2.855e-4,0,0,0,0,6.108e-4,3.849,90,10.524,933.531,0.001,337.676,0.627,5.89e7,20.32,324.293,0.03,0.267,0.027
2.8,298.695,694.935,210.364,213.259,72.518,73.621,42.064,0.003,42.064,0.004,35.021,12.693,0.499,-1.407,0.627,0,4.752,-0.001,80.141,0.006,7.864e4,2.834e4,90.535,0.615,9.79,346.097,263.614,4.059,6905.93,8.971,357.559,0.42,0.24,0.029,0.151,0.421,0.145,0.585,-4.589e-4,0,0,0,0,0.002,3.917,90,10.483,932.829,0.001,337.652,0.634,5.949e7,20.32,324.293,0.02,0.268,0.027
2.82,302.916,699.156,211.813,214.731,72.396,73.572,42.767,0.003,42.767,0.004,35.279,13.1,0.499,-1.407,0.515,0,5.927,-7.087e-4,80.034,0.006,7.855e4,2.826e4,90.52,0.614,9.79,346.563,263.61,4.082,6899.99,8.973,362.882,0.421,0.24,0.029,0.152,0.421,0.118,0.479,-4.773e-4,0,0,0,0,0.003,3.905,90,10.455,932.358,0.001,337.635,0.638,5.988e7,20.32,324.293,0.03,0.269,0.028
2.85,309.303,705.543,213.982,216.937,72.176,73.494,43.831,0.003,43.831,0.004,35.683,13.86,0.499,-1.407,0.312,0,7.225,2.363e-4,79.835,0.006,7.846e4,2.817e4,90.505,0.614,9.79,347.395,263.606,4.123,6894.05,8.975,370.981,0.422,0.24,0.029,0.153,0.422,0.071,0.29,1.514e-4,0,0,0,0,0.004,3.888,90,10.414,931.644,0.001,337.61,0.645,6.046e7,20.32,324.293,0.02,0.27,0.028
2.87,313.597,709.837,215.424,218.406,72.032,73.447,44.548,0.004,44.548,0.005,35.965,14.347,0.499,-1.407,0.198,0,7.762,2.517e-4,79.685,0.006,7.838e4,2.808e4,90.49,0.613,9.79,347.879,263.602,4.147,6888.12,8.977,376.596,0.423,0.24,0.03,0.154,0.423,0.045,0.181,-2.553e-4,0,0,0,0,0.005,4.012,90,10.386,931.164,0.001,337.593,0.649,6.086e7,20.32,324.293,0.03,0.271,0.028
2.9,320.093,716.333,217.582,220.606,71.792,73.369,45.633,0.004,45.633,0.005,36.407,15.131,0.499,-1.407,0.016,0,8.096,0.007,79.445,0.007,7.829e4,2.8e4,90.475,0.613,9.79,348.657,263.6,4.186,6882.18,8.979,385.193,0.424,0.239,0.03,0.155,0.424,0.004,0.011,-7.935e-5,0,0,0,0,0.005,4.198,90,10.344,930.439,0.001,337.567,0.656,6.145e7,20.32,324.293,0.02,0.272,0.028
2.92,324.459,720.699,219.016,222.072,71.616,73.327,46.364,0.004,46.364,0.005,36.716,15.748,0.499,-1.407,0.136,0,-7.949,0.001,79.284,0.007,7.821e4,2.791e4,90.459,0.612,9.79,348.247,263.597,4.166,6876.24,8.981,390.949,0.425,0.239,0.03,0.155,0.425,0.031,0.134,3.037e-4,0,0,0,0,-0.005,4.192,90,10.315,929.951,0.001,337.55,0.66,6.183e7,20.32,324.293,0.03,0.273,0.029
2.95,331.061,727.301,221.16,224.267,71.345,73.257,47.473,0.004,47.473,0.005,37.202,16.626,0.499,-1.407,0.345,0,-7.108,5.68e-4,79.057,0.007,7.812e4,2.783e4,90.444,0.612,9.79,347.547,263.595,4.131,6870.3,8.983,399.771,0.426,0.239,0.031,0.156,0.426,0.079,0.331,-1.769e-4,0,0,0,0,-0.004,4.182,90,10.273,929.213,0.001,337.524,0.667,6.241e7,20.32,324.293,0.02,0.274,0.029
2.97,335.499,731.739,222.585,225.729,71.186,73.212,48.22,0.004,48.22,0.005,37.539,17.104,0.499,-1.407,0.448,0,-6.182,9.74e-4,78.923,0.007,7.804e4,2.774e4,90.435,0.612,9.79,347.22,263.574,4.116,6864.37,8.985,405.781,0.427,0.239,0.031,0.157,0.427,0.103,0.427,2.177e-4,0,0,0,0,-0.003,4.231,90,10.244,928.717,0.001,337.507,0.671,6.28e7,20.32,324.293,0.03,0.276,0.029
3,342.208,738.448,224.718,227.918,70.969,73.132,49.354,0.004,49.354,0.005,38.061,17.655,0.499,-1.407,0.56,0,-4.389,4.262e-4,78.764,0.007,7.795e4,2.766e4,90.42,0.611,9.79,346.896,263.573,4.101,6858.43,8.987,414.889,0.428,0.239,0.032,0.158,0.429,0.13,0.533,-3.892e-4,0,0,0,0,-0.001,4.305,90,10.2,927.968,0.001,337.48,0.678,6.337e7,20.32,324.293,0.02,0.277,0.029
3.02,346.717,742.957,226.136,229.376,70.856,73.077,50.119,0.004,50.119,0.005,38.417,17.88,0.499,-1.407,0.598,0,-3.004,-1.693e-4,78.69,0.007,7.787e4,2.757e4,90.404,0.611,9.79,346.815,263.572,4.097,6852.49,8.989,421,0.429,0.239,0.032,0.159,0.43,0.139,0.568,2.67e-4,0,0,0,0,-6.468e-4,4.364,90,10.171,927.464,0.001,337.462,0.682,6.376e7,20.32,324.293,0.03,0.279,0.029
3.05,353.533,749.773,228.259,231.56,70.727,72.977,51.28,0.004,51.28,0.005,38.955,17.983,0.499,-1.407,0.6,0,-0.808,-1.603e-4,78.632,0.007,7.778e4,2.749e4,90.388,0.61,9.79,346.894,263.572,4.1,6846.55,8.991,430.192,0.431,0.238,0.033,0.16,0.431,0.139,0.571,-1.033e-4,0,0,0,0,-4.593e-5,4.453,90,10.126,926.702,0.001,337.436,0.689,6.433e7,20.32,324.293,0.02,0.28,0.03
3.07,358.112,754.352,229.673,233.014,70.684,72.907,52.062,0.005,52.062,0.005,39.314,17.862,0.499,-1.407,0.556,0,0.621,-6.136e-4,78.631,0.007,7.77e4,2.74e4,90.372,0.61,9.79,347.118,263.573,4.111,6840.62,8.993,436.357,0.432,0.238,0.033,0.16,0.432,0.129,0.53,1.185e-4,0,0,0,0,2.676e-5,4.556,90,10.097,926.191,0.001,337.418,0.693,6.472e7,20.32,324.293,0.03,0.28,0.03
3.1,365.034,761.274,231.793,235.193,70.659,72.783,53.25,0.005,53.25,0.005,39.844,17.456,0.499,-1.407,0.441,0,2.51,-1.255e-4,78.678,0.007,7.761e4,2.732e4,90.355,0.609,9.79,347.631,263.574,4.137,6834.68,8.995,445.659,0.433,0.238,0.034,0.161,0.433,0.102,0.421,-5.453e-5,0,0,0,0,4.292e-4,4.711,90,10.052,925.417,0.001,337.39,0.7,6.53e7,20.32,324.293,0.02,0.281,0.03
3.12,369.684,765.924,233.207,236.644,70.659,72.703,54.05,0.005,54.05,0.005,40.19,17.118,0.499,-1.407,0.357,0,3.531,-1.699e-4,78.739,0.007,7.753e4,2.723e4,90.339,0.609,9.79,348.001,263.575,4.155,6828.74,8.997,451.915,0.434,0.238,0.034,0.162,0.434,0.082,0.342,4.071e-4,0,0,0,0,8.389e-4,4.734,90,10.021,924.898,0.001,337.372,0.704,6.567e7,20.32,324.293,0.03,0.282,0.03
3.15,376.712,772.952,235.327,238.819,70.679,72.571,55.264,0.005,55.264,0.005,40.694,16.462,0.499,-1.407,0.203,0,4.626,-0.001,78.863,0.007,7.744e4,2.715e4,90.323,0.609,9.79,348.668,263.577,4.188,6822.81,8.999,461.43,0.436,0.238,0.035,0.163,0.436,0.047,0.194,-3.295e-4,0,0,0,0,0.001,4.768,90,9.976,924.113,0.001,337.344,0.71,6.624e7,20.32,324.293,0.02,0.283,0.031
3.17,381.433,777.673,236.74,240.268,70.694,72.489,56.081,0.005,56.081,0.005,41.019,16.03,0.499,-1.407,0.11,0,5.037,-0.002,78.96,0.007,7.736e4,2.706e4,90.306,0.608,9.79,349.077,263.58,4.208,6816.87,9.001,467.803,0.437,0.237,0.035,0.164,0.437,0.025,0.105,2.743e-4,0,0,0,0,0.002,4.698,90,9.945,923.585,0.001,337.326,0.715,6.661e7,20.32,324.293,0.03,0.285,0.031
3.2,388.567,784.807,238.861,242.438,70.714,72.358,57.318,0.005,57.318,0.005,41.49,15.338,0.499,-1.407,0.035,0,-5.181,-0.008,79.115,0.007,7.727e4,2.698e4,90.289,0.608,9.79,349.471,263.582,4.227,6810.93,9.004,477.519,0.438,0.237,0.036,0.165,0.438,0.008,0.036,3.387e-4,0,0,0,0,-0.002,4.593,90,9.899,922.788,0.001,337.298,0.721,6.717e7,20.32,324.293,0.02,0.285,0.031
3.22,393.358,789.598,240.276,243.883,70.724,72.276,58.151,0.005,58.151,0.005,41.792,14.901,0.499,-1.407,0.121,0,-4.962,-0.002,79.217,0.008,7.719e4,2.689e4,90.272,0.607,9.79,349.197,263.586,4.213,6804.99,9.006,484.077,0.439,0.237,0.037,0.166,0.439,0.028,0.118,-1.361e-4,0,0,0,0,-0.002,4.497,90,9.868,922.253,0.001,337.279,0.725,6.754e7,20.32,324.293,0.03,0.286,0.031
3.25,400.598,796.838,242.398,246.049,70.716,72.149,59.412,0.006,59.412,0.005,42.23,14.304,0.499,-1.407,0.233,0,-4.209,-0.002,79.355,0.008,7.71e4,2.681e4,90.255,0.607,9.79,348.867,263.59,4.197,6799.06,9.008,494.056,0.441,0.237,0.037,0.167,0.441,0.054,0.227,4.82e-4,0,0,0,0,-0.001,4.352,90,9.821,921.444,0.001,337.25,0.732,6.809e7,20.32,324.293,0.02,0.287,0.032
3.27,405.46,801.7,243.812,247.49,70.709,72.067,60.259,0.006,60.259,0.005,42.512,13.924,0.499,-1.407,0.307,0,-3.44,-0.002,79.432,0.008,7.702e4,2.672e4,90.238,0.606,9.79,348.657,263.594,4.186,6793.12,9.01,500.868,0.442,0.237,0.038,0.167,0.442,0.071,0.299,2.74e-4,0,0,0,0,-7.288e-4,4.326,90,9.789,920.901,0.001,337.231,0.736,6.846e7,20.32,324.293,0.03,0.288,0.032
