# Time (s),Altitude (m),Altitude above sea level (m),Vertical velocity (m/s),Total velocity (m/s),Vertical acceleration (m/s²),Total acceleration (m/s²),Position East of launch (m),Position North of launch (m),Lateral distance (m),Lateral direction (°),Lateral velocity (m/s),Lateral acceleration (m/s²),Latitude (° N),Longitude (° E),Angle of attack (°),Roll rate (°/s),Pitch rate (°/s),Yaw rate (°/s),Vertical orientation (zenith) (°),Lateral orientation (azimuth) (°),Mass (g),Motor mass (g),Longitudinal moment of inertia (kg·m²),Rotational moment of inertia (kg·m²),Gravitational acceleration (m/s²),CP location (cm),CG location (cm),Stability margin calibers (​),Thrust (N),Thrust-to-weight ratio (​),Drag force (N),Drag coefficient (​),Friction drag coefficient (​),Pressure drag coefficient (​),Base drag coefficient (​),Axial drag coefficient (​),Normal force coefficient (​),Pitch moment coefficient (​),Yaw moment coefficient (​),Side force coefficient (​),Roll moment coefficient (​),Roll forcing coefficient (​),Roll damping coefficient (​),Pitch damping coefficient (​),Wind velocity (m/s),Wind direction (°),Air temperature (°C),Air pressure (mbar),Air density (g/cm³),Speed of sound (m/s),Mach number (​),Reynolds number (​),Reference length (cm),Reference area (cm²),Simulation time step (s),Computation time (s),Coriolis acceleration (m/s²)
0,0,420,0,0,99.591,100.05,0,0,0,0,0,9.571,0.838,-1.429,0,0,0,0,85,0,1.151e5,5.44e4,173.245,0.828,9.808,NaN,321.451,NaN,1.264e4,11.197,0,1.69,1.562,0.023,0.105,1.69,NaN,NaN,NaN,NaN,NaN,NaN,NaN,NaN,0,0,12.27,963.991,0.001,338.735,0,0,20.32,324.293,0.003,0.018,0
0.003,3.112e-4,420,0.249,0.25,99.589,100.048,2.991e-5,0,2.991e-5,5.174e-6,0.024,9.571,0.838,-1.429,0.49,0,0,0,85,0,1.151e5,5.438e4,173.241,0.828,9.808,NaN,321.464,NaN,1.264e4,11.197,0.001,0.94,0.812,0.023,0.105,0.941,NaN,NaN,NaN,NaN,NaN,NaN,NaN,NaN,0,0,12.27,963.991,0.001,338.735,7.384e-4,8.361e4,20.32,324.293,0.003,0.036,2.455e-5
0.005,0.001,420.001,0.498,0.5,99.586,100.045,1.196e-4,0,1.196e-4,1.035e-5,0.048,9.571,0.838,-1.429,0.49,0,0,0,85,0,1.151e5,5.436e4,173.238,0.828,9.808,NaN,321.476,NaN,1.264e4,11.197,0.004,0.81,0.682,0.023,0.105,0.811,NaN,NaN,NaN,NaN,NaN,NaN,NaN,NaN,0,0,12.27,963.991,0.001,338.735,0.001,1.672e5,20.32,324.293,0.003,0.044,4.91e-5
0.008,0.003,420.003,0.747,0.75,99.583,100.041,2.692e-4,0,2.692e-4,1.552e-5,0.072,9.57,0.838,-1.429,0.49,0,0,0,85,0,1.151e5,5.435e4,173.235,0.828,9.808,NaN,321.486,NaN,1.263e4,11.196,0.008,0.748,0.62,0.023,0.105,0.749,NaN,NaN,NaN,NaN,NaN,NaN,NaN,NaN,0,0,12.27,963.991,0.001,338.735,0.002,2.508e5,20.32,324.293,0.003,0.051,7.365e-5
0.01,0.005,420.005,0.996,1,99.578,100.037,4.785e-4,0,4.785e-4,2.07e-5,0.096,9.57,0.838,-1.429,0.49,0,0,0,85,0,1.15e5,5.434e4,173.232,0.827,9.808,NaN,321.496,NaN,1.263e4,11.196,0.014,0.709,0.581,0.023,0.105,0.71,NaN,NaN,NaN,NaN,NaN,NaN,NaN,NaN,0,0,12.27,963.99,0.001,338.735,0.003,3.344e5,20.32,324.293,0.003,0.059,9.82e-5
0.013,0.008,420.008,1.245,1.251,99.572,100.031,7.477e-4,0,7.477e-4,2.587e-5,0.12,9.569,0.838,-1.429,0.49,0,0,0,85,0,1.15e5,5.432e4,173.228,0.827,9.808,NaN,321.508,NaN,1.263e4,11.195,0.02,0.681,0.553,0.023,0.105,0.682,NaN,NaN,NaN,NaN,NaN,NaN,NaN,NaN,0,0,12.27,963.99,0.001,338.734,0.004,4.18e5,20.32,324.293,0.003,0.067,1.227e-4
0.015,0.011,420.011,1.494,1.501,99.565,100.024,0.001,0,0.001,3.104e-5,0.144,9.569,0.838,-1.429,0.49,0,0,0,85,0,1.15e5,5.43e4,173.225,0.827,9.808,NaN,321.52,NaN,1.263e4,11.194,0.028,0.66,0.532,0.023,0.105,0.66,NaN,NaN,NaN,NaN,NaN,NaN,NaN,NaN,0,0,12.27,963.99,0.001,338.734,0.004,5.016e5,20.32,324.293,0.003,0.081,1.473e-4
0.018,0.015,420.015,1.743,1.751,99.556,100.015,0.001,0,0.001,3.622e-5,0.167,9.568,0.838,-1.429,0.49,0,0,0,85,0,1.15e5,5.428e4,173.221,0.827,9.808,NaN,321.532,NaN,1.262e4,11.194,0.038,0.643,0.515,0.023,0.105,0.643,NaN,NaN,NaN,NaN,NaN,NaN,NaN,NaN,0,0,12.27,963.989,0.001,338.734,0.005,5.852e5,20.32,324.293,0.003,0.088,1.718e-4
0.02,0.02,420.02,1.991,2.001,99.547,100.006,0.002,0,0.002,4.139e-5,0.191,9.567,0.838,-1.429,0.49,0,0,0,85,0,1.15e5,5.427e4,173.218,0.827,9.808,NaN,321.543,NaN,1.262e4,11.193,0.048,0.629,0.501,0.023,0.105,0.629,NaN,NaN,NaN,NaN,NaN,NaN,NaN,NaN,0,0,12.27,963.989,0.001,338.734,0.006,6.688e5,20.32,324.293,0.003,0.094,1.964e-4
0.023,0.025,420.025,2.24,2.251,99.614,99.994,0.002,0,0.002,4.657e-5,0.215,8.715,0.838,-1.429,0.49,0,0,0,85,0,1.15e5,5.426e4,173.215,0.827,9.808,NaN,321.552,NaN,1.262e4,11.192,0.06,0.617,0.489,0.023,0.105,0.617,NaN,NaN,NaN,NaN,NaN,NaN,NaN,NaN,0,0,12.27,963.988,0.001,338.734,0.007,7.524e5,20.32,324.293,0.003,0.104,2.209e-4
0.025,0.031,420.031,2.489,2.501,99.602,99.982,0.003,0,0.003,5.034e-5,0.237,8.714,0.838,-1.429,0.441,0,0,0,85,0,1.149e5,5.424e4,173.212,0.827,9.808,NaN,321.564,NaN,1.262e4,11.191,0.072,0.607,0.478,0.023,0.105,0.607,NaN,NaN,NaN,NaN,NaN,NaN,NaN,NaN,0,0,12.27,963.987,0.001,338.734,0.007,8.359e5,20.32,324.293,0.003,0.113,2.454e-4
0.027,0.038,420.038,2.738,2.751,99.584,99.964,0.004,0,0.004,5.211e-5,0.259,8.712,0.838,-1.429,0.401,0,0,0,85,0,1.149e5,5.422e4,173.242,0.827,9.808,NaN,321.654,NaN,1.261e4,11.189,0.086,0.598,0.469,0.023,0.105,0.598,NaN,NaN,NaN,NaN,NaN,NaN,NaN,NaN,0,0,12.27,963.987,0.001,338.734,0.008,9.195e5,20.32,324.293,0.003,0.122,2.699e-4
0.03,0.045,420.045,2.987,3,99.561,99.941,0.004,0,0.004,5.268e-5,0.281,8.71,0.838,-1.429,0.367,0,0,0,85,0,1.149e5,5.42e4,173.25,0.827,9.808,NaN,321.692,NaN,1.261e4,11.186,0.101,0.589,0.461,0.023,0.105,0.59,NaN,NaN,NaN,NaN,NaN,NaN,NaN,NaN,0,0,12.27,963.986,0.001,338.734,0.009,1.003e6,20.32,324.293,0.003,0.127,2.944e-4
0.032,0.053,420.053,3.236,3.25,99.536,99.916,0.005,0,0.005,5.252e-5,0.302,8.708,0.838,-1.429,0.339,0,0,0,85,0,1.149e5,5.419e4,173.247,0.827,9.808,NaN,321.704,NaN,1.26e4,11.184,0.117,0.582,0.454,0.023,0.105,0.582,NaN,NaN,NaN,NaN,NaN,NaN,NaN,NaN,0,0,12.27,963.985,0.001,338.734,0.01,1.086e6,20.32,324.293,0.003,0.133,3.189e-4
0.035,0.061,420.061,3.485,3.5,99.513,99.893,0.006,5.25e-9,0.006,5.191e-5,0.324,8.706,0.838,-1.429,0.315,0,0,0,85,0,1.149e5,5.417e4,173.244,0.827,9.808,NaN,321.715,NaN,1.26e4,11.182,0.135,0.576,0.447,0.023,0.105,0.576,NaN,NaN,NaN,NaN,NaN,NaN,NaN,NaN,0,0,12.27,963.984,0.001,338.734,0.01,1.17e6,20.32,324.293,0.003,0.139,3.434e-4
0.038,0.07,420.07,3.734,3.75,99.492,99.872,0.007,5.906e-9,0.007,5.103e-5,0.346,8.704,0.838,-1.429,0.294,0,0,0,85,0,1.149e5,5.416e4,173.241,0.827,9.808,NaN,321.724,NaN,1.259e4,11.179,0.153,0.57,0.441,0.023,0.105,0.57,NaN,NaN,NaN,NaN,NaN,NaN,NaN,NaN,0,0,12.27,963.983,0.001,338.734,0.011,1.253e6,20.32,324.293,0.003,0.143,3.679e-4
0.04,0.08,420.08,3.982,3.999,99.462,99.842,0.008,6.563e-9,0.008,4.997e-5,0.368,8.702,0.838,-1.429,0.275,0,0,0,85,0,1.148e5,5.414e4,173.238,0.827,9.808,NaN,321.736,NaN,1.259e4,11.176,0.172,0.564,0.436,0.023,0.105,0.564,NaN,NaN,NaN,NaN,NaN,NaN,NaN,NaN,0,0,12.269,963.982,0.001,338.734,0.012,1.337e6,20.32,324.293,0.003,0.147,3.924e-4
0.043,0.09,420.09,4.231,4.249,99.43,99.81,0.008,7.219e-9,0.008,4.883e-5,0.389,8.699,0.838,-1.429,0.259,0,0,0,85,0,1.148e5,5.413e4,173.234,0.826,9.808,NaN,321.748,NaN,1.258e4,11.173,0.193,0.559,0.431,0.023,0.105,0.559,NaN,NaN,NaN,NaN,NaN,NaN,NaN,NaN,0,0,12.269,963.98,0.001,338.734,0.013,1.42e6,20.32,324.293,0.003,0.151,4.169e-4
0.045,0.101,420.101,4.48,4.498,99.397,99.776,0.009,7.875e-9,0.009,4.764e-5,0.411,8.696,0.838,-1.429,0.245,0,0,0,85,0,1.148e5,5.411e4,173.23,0.826,9.808,NaN,321.76,NaN,1.258e4,11.17,0.214,0.555,0.426,0.023,0.105,0.555,NaN,NaN,NaN,NaN,NaN,NaN,NaN,NaN,0,0,12.269,963.979,0.001,338.734,0.013,1.504e6,20.32,324.293,0.003,0.157,4.413e-4
0.048,0.112,420.112,4.728,4.748,99.233,99.612,0.011,8.531e-9,0.011,4.643e-5,0.433,8.682,0.838,-1.429,0.232,0,0,0,85,0,1.148e5,5.409e4,173.227,0.826,9.808,NaN,321.771,NaN,1.256e4,11.153,0.237,0.55,0.422,0.023,0.105,0.55,NaN,NaN,NaN,NaN,NaN,NaN,NaN,NaN,0,0,12.269,963.978,0.001,338.734,0.014,1.587e6,20.32,324.293,0.003,0.16,4.658e-4
0.05,0.124,420.124,4.976,4.997,99.211,99.59,0.012,9.188e-9,0.012,4.524e-5,0.455,8.68,0.838,-1.429,0.221,0,0,0,85,0,1.148e5,5.408e4,173.225,0.826,9.808,NaN,321.779,NaN,1.255e4,11.151,0.26,0.546,0.418,0.023,0.105,0.546,NaN,NaN,NaN,NaN,NaN,NaN,NaN,NaN,0,0,12.269,963.976,0.001,338.734,0.015,1.67e6,20.32,324.293,0.003,0.164,4.902e-4
0.053,0.137,420.137,5.224,5.246,99.177,99.556,0.013,9.844e-9,0.013,4.406e-5,0.476,8.677,0.838,-1.429,0.21,0,0,0,85,0,1.148e5,5.406e4,173.221,0.826,9.808,NaN,321.791,NaN,1.255e4,11.147,0.285,0.542,0.414,0.023,0.105,0.542,NaN,NaN,NaN,NaN,NaN,NaN,NaN,NaN,0,0,12.269,963.975,0.001,338.734,0.015,1.753e6,20.32,324.293,0.003,0.169,5.146e-4
0.055,0.151,420.151,5.472,5.494,99.141,99.519,0.014,1.05e-8,0.014,4.292e-5,0.498,8.674,0.838,-1.429,0.201,0,0,0,85,0,1.147e5,5.405e4,173.218,0.826,9.808,NaN,321.803,NaN,1.254e4,11.144,0.31,0.539,0.41,0.023,0.105,0.539,NaN,NaN,NaN,NaN,NaN,NaN,NaN,NaN,0,0,12.269,963.973,0.001,338.734,0.016,1.837e6,20.32,324.293,0.003,0.174,5.39e-4
0.058,0.165,420.165,5.72,5.743,99.102,99.481,0.015,1.116e-8,0.015,4.181e-5,0.52,8.67,0.838,-1.429,0.192,0,0,0,85,0,1.147e5,5.403e4,173.214,0.826,9.808,NaN,321.815,NaN,1.254e4,11.14,0.337,0.535,0.407,0.023,0.106,0.535,NaN,NaN,NaN,NaN,NaN,NaN,NaN,NaN,0,0,12.269,963.972,0.001,338.734,0.017,1.92e6,20.32,324.293,0.003,0.177,5.634e-4
0.06,0.179,420.179,5.967,5.992,99.063,99.441,0.017,1.181e-8,0.017,4.073e-5,0.541,8.667,0.838,-1.429,0.184,0,0,0,85,0,1.147e5,5.401e4,173.211,0.826,9.808,NaN,321.827,NaN,1.253e4,11.136,0.365,0.532,0.404,0.023,0.106,0.532,NaN,NaN,NaN,NaN,NaN,NaN,NaN,NaN,0,0,12.269,963.97,0.001,338.734,0.018,2.003e6,20.32,324.293,0.003,0.184,5.878e-4
0.063,0.194,420.194,6.215,6.24,99.023,99.402,0.018,1.247e-8,0.018,3.97e-5,0.563,8.663,0.838,-1.429,0.177,0,0,0,85,0,1.147e5,5.4e4,173.207,0.826,9.808,NaN,321.838,NaN,1.252e4,11.132,0.393,0.529,0.401,0.023,0.106,0.529,NaN,NaN,NaN,NaN,NaN,NaN,NaN,NaN,0,0,12.269,963.968,0.001,338.734,0.018,2.086e6,20.32,324.293,0.003,0.189,6.121e-4
0.065,0.21,420.21,6.462,6.489,98.994,99.372,0.019,1.313e-8,0.019,3.87e-5,0.585,8.661,0.838,-1.429,0.17,0,0,0,85,0,1.147e5,5.399e4,173.205,0.826,9.808,NaN,321.846,NaN,1.252e4,11.129,0.423,0.526,0.398,0.023,0.106,0.526,NaN,NaN,NaN,NaN,NaN,NaN,NaN,NaN,0,0,12.269,963.966,0.001,338.734,0.019,2.169e6,20.32,324.293,0.003,0.193,6.365e-4
0.068,0.227,420.227,6.71,6.737,98.949,99.327,0.021,1.378e-8,0.021,3.774e-5,0.606,8.657,0.838,-1.429,0.164,0,0,0,85,0,1.147e5,5.397e4,173.201,0.826,9.808,NaN,321.858,NaN,1.251e4,11.124,0.453,0.524,0.395,0.023,0.106,0.524,NaN,NaN,NaN,NaN,NaN,NaN,NaN,NaN,0,0,12.269,963.964,0.001,338.734,0.02,2.252e6,20.32,324.293,0.003,0.197,6.609e-4
0.07,0.244,420.244,6.957,6.985,98.907,99.285,0.022,1.444e-8,0.022,3.683e-5,0.628,8.653,0.838,-1.429,0.158,0,0,0,85,0,1.147e5,5.395e4,173.221,0.826,9.808,NaN,321.922,NaN,1.25e4,11.12,0.485,0.521,0.393,0.023,0.106,0.521,NaN,NaN,NaN,NaN,NaN,NaN,NaN,NaN,0,0,12.268,963.962,0.001,338.734,0.021,2.335e6,20.32,324.293,0.003,0.206,6.852e-4
0.073,0.261,420.261,7.204,7.234,98.944,99.321,0.024,1.509e-8,0.024,3.594e-5,0.65,8.656,0.838,-1.429,0.152,0,0,0,85,0,1.146e5,5.393e4,173.241,0.826,9.808,NaN,321.985,NaN,1.251e4,11.124,0.518,0.518,0.39,0.023,0.106,0.519,NaN,NaN,NaN,NaN,NaN,NaN,NaN,NaN,0,0,12.268,963.96,0.001,338.733,0.021,2.418e6,20.32,324.293,0.003,0.21,7.096e-4
0.075,0.28,420.28,7.452,7.482,98.939,99.317,0.026,1.575e-8,0.026,3.51e-5,0.671,8.656,0.838,-1.429,0.147,0,0,0,85,0,1.146e5,5.392e4,173.237,0.825,9.808,NaN,321.997,NaN,1.25e4,11.123,0.551,0.516,0.388,0.023,0.106,0.516,NaN,NaN,NaN,NaN,NaN,NaN,NaN,NaN,0,0,12.268,963.958,0.001,338.733,0.022,2.501e6,20.32,324.293,0.003,0.215,7.339e-4
0.078,0.303,420.303,7.749,7.78,98.916,99.294,0.028,1.654e-8,0.028,3.413e-5,0.697,8.654,0.838,-1.429,0.142,0,0,0,85,0,1.146e5,5.39e4,173.234,0.825,9.808,NaN,322.006,NaN,1.25e4,11.121,0.593,0.513,0.385,0.023,0.106,0.513,NaN,NaN,NaN,NaN,NaN,NaN,NaN,NaN,0,0,12.268,963.956,0.001,338.733,0.023,2.601e6,20.32,324.293,0.003,0.221,7.631e-4
0.081,0.322,420.322,7.996,8.028,98.887,99.265,0.03,1.719e-8,0.03,3.336e-5,0.719,8.652,0.838,-1.429,0.137,0,0,0,85,0,1.146e5,5.389e4,173.231,0.825,9.808,NaN,322.018,NaN,1.249e4,11.118,0.629,0.511,0.383,0.023,0.106,0.511,NaN,NaN,NaN,NaN,NaN,NaN,NaN,NaN,0,0,12.268,963.953,0.001,338.733,0.024,2.684e6,20.32,324.293,0.003,0.226,7.875e-4
0.083,0.343,420.343,8.243,8.276,98.822,99.199,0.031,1.785e-8,0.031,3.261e-5,0.74,8.646,0.838,-1.429,0.133,0,0,0,85,0,1.146e5,5.387e4,173.227,0.825,9.808,NaN,322.03,NaN,1.249e4,11.111,0.665,0.509,0.381,0.023,0.106,0.509,NaN,NaN,NaN,NaN,NaN,NaN,NaN,NaN,0,0,12.268,963.951,0.001,338.733,0.024,2.767e6,20.32,324.293,0.003,0.231,8.118e-4
0.086,0.364,420.364,8.49,8.524,98.758,99.135,0.033,1.851e-8,0.033,3.19e-5,0.762,8.64,0.838,-1.429,0.129,0,0,0,85,0,1.146e5,5.385e4,173.224,0.825,9.808,NaN,322.042,NaN,1.248e4,11.105,0.703,0.507,0.379,0.023,0.106,0.507,NaN,NaN,NaN,NaN,NaN,NaN,NaN,NaN,0,0,12.268,963.948,0.001,338.733,0.025,2.849e6,20.32,324.293,0.003,0.234,8.361e-4
0.088,0.385,420.385,8.737,8.772,98.729,99.106,0.035,1.916e-8,0.035,3.122e-5,0.784,8.638,0.838,-1.429,0.126,0,0,0,85,0,1.145e5,5.384e4,173.221,0.825,9.808,NaN,322.053,NaN,1.247e4,11.102,0.742,0.505,0.377,0.023,0.106,0.505,NaN,NaN,NaN,NaN,NaN,NaN,NaN,NaN,0,0,12.267,963.946,0.001,338.733,0.026,2.932e6,20.32,324.293,0.003,0.239,8.604e-4
0.091,0.412,420.412,9.033,9.069,98.705,99.082,0.038,1.995e-8,0.038,3.043e-5,0.81,8.636,0.838,-1.429,0.121,0,0,0,85,0,1.145e5,5.382e4,173.218,0.825,9.808,NaN,322.063,NaN,1.247e4,11.099,0.789,0.503,0.374,0.023,0.106,0.503,NaN,NaN,NaN,NaN,NaN,NaN,NaN,NaN,0,0,12.267,963.943,0.001,338.733,0.027,3.032e6,20.32,324.293,0.003,0.242,8.895e-4
0.094,0.435,420.435,9.28,9.317,98.673,99.05,0.04,2.061e-8,0.04,2.981e-5,0.831,8.633,0.838,-1.429,0.118,0,0,0,85,0,1.145e5,5.381e4,173.214,0.825,9.808,NaN,322.075,NaN,1.246e4,11.096,0.83,0.501,0.373,0.023,0.106,0.501,NaN,NaN,NaN,NaN,NaN,NaN,NaN,NaN,0,0,12.267,963.94,0.001,338.733,0.028,3.114e6,20.32,324.293,0.003,0.244,9.138e-4
0.096,0.458,420.458,9.526,9.564,98.641,99.018,0.042,2.126e-8,0.042,2.92e-5,0.853,8.63,0.838,-1.429,0.115,0,0,0,85,0,1.145e5,5.379e4,173.211,0.825,9.808,NaN,322.087,NaN,1.246e4,11.093,0.872,0.499,0.371,0.023,0.106,0.499,NaN,NaN,NaN,NaN,NaN,NaN,NaN,NaN,0,0,12.267,963.937,0.001,338.733,0.028,3.197e6,20.32,324.293,0.003,0.246,9.381e-4
0.099,0.482,420.482,9.773,9.812,98.607,98.984,0.044,2.192e-8,0.044,2.862e-5,0.874,8.627,0.838,-1.429,0.112,0,0,0,85,0,1.145e5,5.377e4,173.242,0.825,9.808,NaN,322.174,NaN,1.245e4,11.09,0.914,0.498,0.369,0.023,0.106,0.498,NaN,NaN,NaN,NaN,NaN,NaN,NaN,NaN,0,0,12.267,963.934,0.001,338.733,0.029,3.28e6,20.32,324.293,0.003,0.249,9.624e-4
0.101,0.507,420.507,10.019,10.059,98.55,98.927,0.046,2.258e-8,0.046,2.807e-5,0.896,8.622,0.838,-1.429,0.11,0,0,0,85,0,1.145e5,5.375e4,173.25,0.825,9.808,NaN,322.211,NaN,1.244e4,11.084,0.958,0.496,0.368,0.023,0.106,0.496,NaN,NaN,NaN,NaN,NaN,NaN,NaN,NaN,0,0,12.267,963.932,0.001,338.733,0.03,3.363e6,20.32,324.293,0.003,0.253,9.866e-4
0.104,0.532,420.532,10.266,10.307,98.491,98.867,0.048,2.323e-8,0.048,2.753e-5,0.917,8.617,0.838,-1.429,0.107,0,0,0,85,0,1.144e5,5.374e4,173.247,0.825,9.808,NaN,322.222,NaN,1.243e4,11.078,1.002,0.495,0.366,0.023,0.106,0.495,NaN,NaN,NaN,NaN,NaN,NaN,NaN,NaN,0,0,12.267,963.929,0.001,338.732,0.03,3.445e6,20.32,324.293,0.003,0.256,0.001
0.106,0.558,420.558,10.512,10.554,98.447,98.823,0.051,2.389e-8,0.051,2.701e-5,0.939,8.613,0.838,-1.429,0.104,0,0,0,85,0,1.144e5,5.373e4,173.245,0.825,9.808,NaN,322.23,NaN,1.243e4,11.073,1.048,0.493,0.364,0.023,0.106,0.493,NaN,NaN,NaN,NaN,NaN,NaN,NaN,NaN,0,0,12.266,963.926,0.001,338.732,0.031,3.528e6,20.32,324.293,0.003,0.259,0.001
0.109,0.585,420.585,10.758,10.801,98.347,98.722,0.053,2.454e-8,0.053,2.651e-5,0.96,8.604,0.838,-1.429,0.102,0,0,0,85,0,1.144e5,5.371e4,173.242,0.824,9.808,NaN,322.242,NaN,1.241e4,11.063,1.094,0.492,0.363,0.023,0.106,0.492,NaN,NaN,NaN,NaN,NaN,NaN,NaN,NaN,0,0,12.266,963.922,0.001,338.732,0.032,3.61e6,20.32,324.293,0.003,0.262,0.001
0.111,0.612,420.612,11.004,11.047,98.29,98.665,0.055,2.52e-8,0.055,2.603e-5,0.982,8.599,0.838,-1.429,0.1,0,0,0,85,0,1.144e5,5.369e4,173.238,0.824,9.808,NaN,322.254,NaN,1.241e4,11.057,1.141,0.49,0.362,0.023,0.106,0.49,NaN,NaN,NaN,NaN,NaN,NaN,NaN,NaN,0,0,12.266,963.919,0.001,338.732,0.033,3.693e6,20.32,324.293,0.003,0.265,0.001
0.114,0.64,420.64,11.249,11.294,98.243,98.618,0.058,2.586e-8,0.058,2.556e-5,1.003,8.595,0.838,-1.429,0.098,0,0,0,85,0,1.144e5,5.368e4,173.235,0.824,9.808,NaN,322.265,NaN,1.24e4,11.053,1.189,0.489,0.36,0.023,0.106,0.489,NaN,NaN,NaN,NaN,NaN,NaN,NaN,NaN,0,0,12.266,963.916,0.001,338.732,0.033,3.775e6,20.32,324.293,0.003,0.268,0.001
0.116,0.668,420.668,11.495,11.54,98.223,98.598,0.06,2.651e-8,0.06,2.511e-5,1.025,8.593,0.838,-1.429,0.095,0,0,0,85,0,1.144e5,5.366e4,173.231,0.824,9.808,NaN,322.277,NaN,1.239e4,11.051,1.238,0.487,0.359,0.023,0.106,0.487,NaN,NaN,NaN,NaN,NaN,NaN,NaN,NaN,0,0,12.266,963.913,0.001,338.732,0.034,3.858e6,20.32,324.293,0.003,0.273,0.001
0.119,0.703,420.703,11.79,11.836,98.235,98.61,0.064,2.73e-8,0.064,2.459e-5,1.051,8.594,0.838,-1.429,0.093,0,0,0,85,0,1.143e5,5.365e4,173.228,0.824,9.808,NaN,322.286,NaN,1.239e4,11.052,1.298,0.486,0.357,0.023,0.106,0.486,NaN,NaN,NaN,NaN,NaN,NaN,NaN,NaN,0,0,12.265,963.909,0.001,338.732,0.035,3.956e6,20.32,324.293,0.003,0.276,0.001
0.122,0.733,420.733,12.035,12.083,98.195,98.57,0.066,2.796e-8,0.066,2.417e-5,1.072,8.591,0.838,-1.429,0.091,0,0,0,85,0,1.143e5,5.363e4,173.225,0.824,9.808,NaN,322.298,NaN,1.239e4,11.048,1.349,0.484,0.356,0.023,0.106,0.485,NaN,NaN,NaN,NaN,NaN,NaN,NaN,NaN,0,0,12.265,963.905,0.001,338.732,0.036,4.039e6,20.32,324.293,0.003,0.279,0.001
0.124,0.763,420.763,12.281,12.329,98.159,98.533,0.069,2.861e-8,0.069,2.377e-5,1.094,8.588,0.838,-1.429,0.089,0,0,0,85,0,1.143e5,5.361e4,173.222,0.824,9.808,NaN,322.309,NaN,1.238e4,11.044,1.401,0.483,0.355,0.023,0.106,0.483,NaN,NaN,NaN,NaN,NaN,NaN,NaN,NaN,0,0,12.265,963.902,0.001,338.732,0.036,4.121e6,20.32,324.293,0.003,0.283,0.001
0.127,0.794,420.794,12.526,12.575,98.063,98.437,0.072,2.927e-8,0.072,2.338e-5,1.115,8.579,0.838,-1.429,0.088,0,0,0,85,0,1.143e5,5.36e4,173.218,0.824,9.808,NaN,322.321,NaN,1.237e4,11.034,1.454,0.482,0.353,0.023,0.106,0.482,NaN,NaN,NaN,NaN,NaN,NaN,NaN,NaN,0,0,12.265,963.898,0.001,338.731,0.037,4.203e6,20.32,324.293,0.003,0.286,0.001
0.129,0.826,420.826,12.771,12.821,97.899,98.273,0.075,2.993e-8,0.075,2.3e-5,1.137,8.565,0.838,-1.429,0.086,0,0,0,85,0,1.143e5,5.358e4,173.261,0.824,9.808,NaN,322.433,NaN,1.235e4,11.018,1.508,0.481,0.352,0.023,0.106,0.481,NaN,NaN,NaN,NaN,NaN,NaN,NaN,NaN,0,0,12.265,963.894,0.001,338.731,0.038,4.286e6,20.32,324.293,0.003,0.295,0.001
0.132,0.858,420.858,13.015,13.067,97.791,98.165,0.077,3.058e-8,0.077,2.263e-5,1.158,8.556,0.838,-1.429,0.084,0,0,0,85,0,1.143e5,5.356e4,173.258,0.824,9.808,NaN,322.443,NaN,1.233e4,11.007,1.563,0.48,0.351,0.023,0.106,0.48,NaN,NaN,NaN,NaN,NaN,NaN,NaN,NaN,0,0,12.264,963.89,0.001,338.731,0.039,4.368e6,20.32,324.293,0.003,0.3,0.001
0.134,0.891,420.891,13.26,13.312,97.74,98.114,0.08,3.124e-8,0.08,2.228e-5,1.179,8.551,0.838,-1.429,0.083,0,0,0,85,0,1.143e5,5.355e4,173.256,0.824,9.808,NaN,322.451,NaN,1.233e4,11.002,1.618,0.479,0.35,0.023,0.106,0.479,NaN,NaN,NaN,NaN,NaN,NaN,NaN,NaN,0,0,12.264,963.887,0.001,338.731,0.039,4.45e6,20.32,324.293,0.003,0.306,0.001
0.137,0.925,420.925,13.504,13.557,97.667,98.04,0.083,3.189e-8,0.083,2.194e-5,1.201,8.545,0.838,-1.429,0.081,0,0,0,85,0,1.142e5,5.354e4,173.253,0.824,9.808,NaN,322.462,NaN,1.232e4,10.994,1.674,0.477,0.349,0.023,0.106,0.478,NaN,NaN,NaN,NaN,NaN,NaN,NaN,NaN,0,0,12.264,963.883,0.001,338.731,0.04,4.532e6,20.32,324.293,0.003,0.31,0.001
0.139,0.959,420.959,13.748,13.802,97.601,97.974,0.086,3.255e-8,0.086,2.16e-5,1.222,8.539,0.838,-1.429,0.08,0,0,0,85,0,1.142e5,5.352e4,173.249,0.824,9.808,NaN,322.474,NaN,1.231e4,10.987,1.731,0.476,0.348,0.023,0.106,0.476,NaN,NaN,NaN,NaN,NaN,NaN,NaN,NaN,0,0,12.264,963.879,0.001,338.731,0.041,4.614e6,20.32,324.293,0.003,0.315,0.001
0.142,0.993,420.993,13.992,14.047,97.522,97.894,0.089,3.321e-8,0.089,2.128e-5,1.243,8.532,0.838,-1.429,0.078,0,0,0,85,0,1.142e5,5.35e4,173.246,0.823,9.808,NaN,322.485,NaN,1.23e4,10.979,1.789,0.475,0.347,0.023,0.106,0.475,NaN,NaN,NaN,NaN,NaN,NaN,NaN,NaN,0,0,12.264,963.875,0.001,338.731,0.041,4.695e6,20.32,324.293,0.003,0.326,0.001
0.144,1.029,421.029,14.236,14.292,97.4,97.772,0.093,3.386e-8,0.093,2.096e-5,1.265,8.521,0.838,-1.429,0.077,0,0,0,85,0,1.142e5,5.348e4,173.289,0.823,9.808,NaN,322.596,NaN,1.228e4,10.967,1.848,0.474,0.346,0.023,0.106,0.474,NaN,NaN,NaN,NaN,NaN,NaN,NaN,NaN,0,0,12.263,963.87,0.001,338.73,0.042,4.777e6,20.32,324.293,0.003,0.33,0.001
0.147,1.072,421.072,14.528,14.585,97.3,97.671,0.096,3.465e-8,0.096,2.06e-5,1.29,8.513,0.838,-1.429,0.076,0,0,0,85,0,1.142e5,5.347e4,173.287,0.823,9.808,NaN,322.605,NaN,1.227e4,10.957,1.92,0.473,0.345,0.023,0.106,0.473,NaN,NaN,NaN,NaN,NaN,NaN,NaN,NaN,0,0,12.263,963.865,0.001,338.73,0.043,4.875e6,20.32,324.293,0.003,0.333,0.001
0.15,1.108,421.108,14.771,14.829,97.151,97.522,0.1,3.531e-8,0.1,2.03e-5,1.312,8.5,0.838,-1.429,0.074,0,0,0,85,0,1.142e5,5.345e4,173.283,0.823,9.808,NaN,322.617,NaN,1.225e4,10.941,1.981,0.472,0.344,0.023,0.106,0.472,NaN,NaN,NaN,NaN,NaN,NaN,NaN,NaN,0,0,12.263,963.861,0.001,338.73,0.044,4.957e6,20.32,324.293,0.003,0.336,0.001
0.152,1.146,421.146,15.013,15.073,96.995,97.365,0.103,3.596e-8,0.103,2.002e-5,1.333,8.486,0.838,-1.429,0.073,0,0,0,85,0,1.141e5,5.344e4,173.28,0.823,9.808,NaN,322.628,NaN,1.223e4,10.926,2.042,0.471,0.343,0.023,0.106,0.471,NaN,NaN,NaN,NaN,NaN,NaN,NaN,NaN,0,0,12.263,963.857,0.001,338.73,0.044,5.038e6,20.32,324.293,0.003,0.339,0.001
0.155,1.183,421.183,15.256,15.316,96.836,97.205,0.106,3.662e-8,0.106,1.974e-5,1.354,8.472,0.838,-1.429,0.072,0,0,0,85,0,1.141e5,5.342e4,173.277,0.823,9.808,NaN,322.639,NaN,1.221e4,10.909,2.105,0.47,0.342,0.023,0.106,0.47,NaN,NaN,NaN,NaN,NaN,NaN,NaN,NaN,0,0,12.262,963.852,0.001,338.73,0.045,5.119e6,20.32,324.293,0.003,0.342,0.002
0.157,1.222,421.222,15.498,15.559,96.69,97.059,0.11,3.728e-8,0.11,1.947e-5,1.375,8.459,0.838,-1.429,0.071,0,0,0,85,0,1.141e5,5.34e4,173.273,0.823,9.808,NaN,322.65,NaN,1.219e4,10.894,2.168,0.469,0.341,0.023,0.106,0.469,NaN,NaN,NaN,NaN,NaN,NaN,NaN,NaN,0,0,12.262,963.848,0.001,338.73,0.046,5.2e6,20.32,324.293,0.003,0.345,0.002
0.16,1.261,421.261,15.739,15.801,96.629,96.998,0.113,3.793e-8,0.113,1.92e-5,1.396,8.454,0.838,-1.429,0.07,0,0,0,85,0,1.141e5,5.339e4,173.317,0.823,9.808,NaN,322.76,NaN,1.218e4,10.888,2.232,0.469,0.34,0.023,0.106,0.469,NaN,NaN,NaN,NaN,NaN,NaN,NaN,NaN,0,0,12.262,963.843,0.001,338.73,0.047,5.281e6,20.32,324.293,0.003,0.348,0.002
0.162,1.301,421.301,15.981,16.044,96.572,96.94,0.117,3.859e-8,0.117,1.895e-5,1.417,8.449,0.838,-1.429,0.069,0,0,0,85,0,1.141e5,5.338e4,173.315,0.823,9.808,NaN,322.767,NaN,1.218e4,10.882,2.296,0.468,0.339,0.023,0.106,0.468,NaN,NaN,NaN,NaN,NaN,NaN,NaN,NaN,0,0,12.262,963.839,0.001,338.729,0.047,5.363e6,20.32,324.293,0.003,0.351,0.002
0.165,1.341,421.341,16.222,16.286,96.521,96.889,0.12,3.924e-8,0.12,1.87e-5,1.439,8.444,0.838,-1.429,0.068,0,0,0,85,0,1.141e5,5.336e4,173.312,0.823,9.808,NaN,322.778,NaN,1.217e4,10.877,2.362,0.467,0.338,0.023,0.106,0.467,NaN,NaN,NaN,NaN,NaN,NaN,NaN,NaN,0,0,12.261,963.834,0.001,338.729,0.048,5.443e6,20.32,324.293,0.003,0.353,0.002
0.167,1.382,421.382,16.463,16.528,96.432,96.801,0.124,3.99e-8,0.124,1.845e-5,1.46,8.437,0.838,-1.429,0.067,0,0,0,85,0,1.14e5,5.334e4,173.309,0.823,9.808,NaN,322.79,NaN,1.216e4,10.868,2.428,0.466,0.337,0.023,0.106,0.466,NaN,NaN,NaN,NaN,NaN,NaN,NaN,NaN,0,0,12.261,963.829,0.001,338.729,0.049,5.524e6,20.32,324.293,0.003,0.356,0.002
0.17,1.423,421.423,16.704,16.77,96.369,96.737,0.128,4.056e-8,0.128,1.822e-5,1.481,8.431,0.838,-1.429,0.066,0,0,0,85,0,1.14e5,5.333e4,173.305,0.823,9.808,NaN,322.801,NaN,1.215e4,10.862,2.495,0.465,0.336,0.023,0.106,0.465,NaN,NaN,NaN,NaN,NaN,NaN,NaN,NaN,0,0,12.261,963.824,0.001,338.729,0.05,5.605e6,20.32,324.293,0.003,0.359,0.002
0.172,1.465,421.465,16.945,17.012,96.28,96.648,0.131,4.121e-8,0.131,1.799e-5,1.502,8.423,0.838,-1.429,0.065,0,0,0,85,0,1.14e5,5.331e4,173.302,0.823,9.808,NaN,322.812,NaN,1.214e4,10.853,2.563,0.464,0.336,0.023,0.106,0.464,NaN,NaN,NaN,NaN,NaN,NaN,NaN,NaN,0,0,12.26,963.819,0.001,338.729,0.05,5.686e6,20.32,324.293,0.003,0.362,0.002
0.175,1.516,421.516,17.234,17.301,96.234,96.602,0.136,4.2e-8,0.136,1.772e-5,1.527,8.419,0.838,-1.429,0.064,0,0,0,85,0,1.14e5,5.33e4,173.299,0.822,9.808,NaN,322.821,NaN,1.213e4,10.848,2.646,0.463,0.335,0.023,0.106,0.463,NaN,NaN,NaN,NaN,NaN,NaN,NaN,NaN,0,0,12.26,963.813,0.001,338.729,0.051,5.783e6,20.32,324.293,0.003,0.364,0.002
0.178,1.56,421.56,17.474,17.543,96.105,96.472,0.14,4.266e-8,0.14,1.75e-5,1.548,8.408,0.838,-1.429,0.063,0,0,0,85,0,1.14e5,5.328e4,173.343,0.822,9.808,NaN,322.93,NaN,1.211e4,10.835,2.716,0.463,0.334,0.023,0.106,0.463,NaN,NaN,NaN,NaN,NaN,NaN,NaN,NaN,0,0,12.26,963.808,0.001,338.728,0.052,5.864e6,20.32,324.293,0.003,0.367,0.002
0.18,1.604,421.604,17.715,17.784,96.027,96.394,0.144,4.331e-8,0.144,1.728e-5,1.569,8.401,0.838,-1.429,0.062,0,0,0,85,0,1.14e5,5.326e4,173.34,0.822,9.808,NaN,322.942,NaN,1.21e4,10.827,2.786,0.462,0.333,0.023,0.106,0.462,NaN,NaN,NaN,NaN,NaN,NaN,NaN,NaN,0,0,12.26,963.803,0.001,338.728,0.053,5.944e6,20.32,324.293,0.003,0.369,0.002
0.183,1.648,421.648,17.955,18.025,95.941,96.307,0.148,4.397e-8,0.148,1.708e-5,1.59,8.394,0.838,-1.429,0.061,0,0,0,85,0,1.14e5,5.325e4,173.337,0.822,9.808,NaN,322.953,NaN,1.209e4,10.818,2.858,0.461,0.332,0.023,0.106,0.461,NaN,NaN,NaN,NaN,NaN,NaN,NaN,NaN,0,0,12.259,963.798,0.001,338.728,0.053,6.025e6,20.32,324.293,0.003,0.372,0.002
0.185,1.694,421.694,18.194,18.265,95.842,96.208,0.152,4.463e-8,0.152,1.687e-5,1.611,8.385,0.838,-1.429,0.06,0,0,0,85,0,1.139e5,5.323e4,173.334,0.822,9.808,NaN,322.964,NaN,1.208e4,10.808,2.93,0.46,0.332,0.023,0.106,0.46,NaN,NaN,NaN,NaN,NaN,NaN,NaN,NaN,0,0,12.259,963.792,0.001,338.728,0.054,6.105e6,20.32,324.293,0.003,0.375,0.002
0.188,1.739,421.739,18.434,18.506,95.751,96.116,0.156,4.528e-8,0.156,1.668e-5,1.632,8.377,0.838,-1.429,0.06,0,0,0,85,0,1.139e5,5.322e4,173.331,0.822,9.808,NaN,322.974,NaN,1.207e4,10.799,3.003,0.46,0.331,0.023,0.106,0.46,NaN,NaN,NaN,NaN,NaN,NaN,NaN,NaN,0,0,12.259,963.787,0.001,338.728,0.055,6.185e6,20.32,324.293,0.003,0.377,0.002
0.19,1.786,421.786,18.673,18.746,95.693,96.058,0.16,4.594e-8,0.16,1.648e-5,1.653,8.372,0.838,-1.429,0.059,0,0,0,85,0,1.139e5,5.321e4,173.329,0.822,9.808,NaN,322.981,NaN,1.206e4,10.793,3.077,0.459,0.33,0.023,0.106,0.459,NaN,NaN,NaN,NaN,NaN,NaN,NaN,NaN,0,0,12.258,963.782,0.001,338.727,0.055,6.266e6,20.32,324.293,0.003,0.38,0.002
0.193,1.833,421.833,18.912,18.986,95.57,95.935,0.164,4.659e-8,0.164,1.629e-5,1.674,8.361,0.838,-1.429,0.058,0,0,0,85,0,1.139e5,5.319e4,173.337,0.822,9.808,NaN,323.016,NaN,1.204e4,10.781,3.151,0.458,0.329,0.023,0.106,0.458,NaN,NaN,NaN,NaN,NaN,NaN,NaN,NaN,0,0,12.258,963.776,0.001,338.727,0.056,6.346e6,20.32,324.293,0.003,0.382,0.002
0.195,1.88,421.88,19.151,19.226,95.475,95.84,0.168,4.725e-8,0.168,1.611e-5,1.695,8.353,0.838,-1.429,0.057,0,0,0,85,0,1.139e5,5.317e4,173.369,0.822,9.808,NaN,323.101,NaN,1.203e4,10.771,3.226,0.458,0.329,0.023,0.106,0.458,NaN,NaN,NaN,NaN,NaN,NaN,NaN,NaN,0,0,12.258,963.771,0.001,338.727,0.057,6.426e6,20.32,324.293,0.003,0.384,0.002
0.198,1.929,421.929,19.389,19.465,95.42,95.784,0.172,4.791e-8,0.172,1.593e-5,1.716,8.348,0.838,-1.429,0.057,0,0,0,85,0,1.139e5,5.316e4,173.366,0.822,9.808,NaN,323.111,NaN,1.202e4,10.766,3.302,0.457,0.328,0.023,0.106,0.457,NaN,NaN,NaN,NaN,NaN,NaN,NaN,NaN,0,0,12.257,963.765,0.001,338.727,0.057,6.506e6,20.32,324.293,0.003,0.387,0.002
0.2,1.977,421.977,19.628,19.705,95.365,95.73,0.177,4.856e-8,0.177,1.575e-5,1.737,8.343,0.838,-1.429,0.056,0,0,0,85,0,1.138e5,5.314e4,173.363,0.822,9.808,NaN,323.122,NaN,1.201e4,10.76,3.379,0.456,0.327,0.023,0.106,0.456,NaN,NaN,NaN,NaN,NaN,NaN,NaN,NaN,0,0,12.257,963.759,0.001,338.727,0.058,6.586e6,20.32,324.293,0.003,0.39,0.002
0.203,2.037,422.037,19.914,19.992,95.309,95.673,0.182,4.935e-8,0.182,1.555e-5,1.762,8.338,0.838,-1.429,0.055,0,0,0,85,0,1.138e5,5.313e4,173.36,0.822,9.808,NaN,323.131,NaN,1.201e4,10.754,3.472,0.455,0.327,0.023,0.106,0.455,NaN,NaN,NaN,NaN,NaN,NaN,NaN,NaN,0,0,12.257,963.752,0.001,338.726,0.059,6.682e6,20.32,324.293,0.003,0.392,0.002
0.206,2.087,422.087,20.152,20.231,95.241,95.604,0.186,5.001e-8,0.186,1.538e-5,1.782,8.332,0.838,-1.429,0.054,0,0,0,85,0,1.138e5,5.311e4,173.357,0.822,9.808,NaN,323.142,NaN,1.2e4,10.747,3.551,0.455,0.326,0.023,0.106,0.455,NaN,NaN,NaN,NaN,NaN,NaN,NaN,NaN,0,0,12.256,963.746,0.001,338.726,0.06,6.762e6,20.32,324.293,0.003,0.395,0.002
0.208,2.137,422.137,20.39,20.47,95.158,95.522,0.191,5.066e-8,0.191,1.521e-5,1.803,8.325,0.838,-1.429,0.054,0,0,0,85,0,1.138e5,5.309e4,173.354,0.821,9.808,NaN,323.153,NaN,1.199e4,10.739,3.63,0.454,0.325,0.023,0.106,0.454,NaN,NaN,NaN,NaN,NaN,NaN,NaN,NaN,0,0,12.256,963.74,0.001,338.726,0.06,6.841e6,20.32,324.293,0.003,0.397,0.002
0.211,2.189,422.189,20.628,20.708,95.073,95.436,0.195,5.132e-8,0.195,1.505e-5,1.824,8.318,0.838,-1.429,0.053,0,0,0,85,0,1.138e5,5.308e4,173.351,0.821,9.808,NaN,323.163,NaN,1.197e4,10.73,3.71,0.454,0.325,0.023,0.106,0.454,NaN,NaN,NaN,NaN,NaN,NaN,NaN,NaN,0,0,12.256,963.734,0.001,338.726,0.061,6.921e6,20.32,324.293,0.003,0.399,0.002
0.213,2.241,422.241,20.866,20.947,94.996,95.358,0.2,5.198e-8,0.2,1.49e-5,1.845,8.311,0.838,-1.429,0.053,0,0,0,85,0,1.138e5,5.306e4,173.395,0.821,9.808,NaN,323.271,NaN,1.196e4,10.723,3.791,0.453,0.324,0.023,0.106,0.453,NaN,NaN,NaN,NaN,NaN,NaN,NaN,NaN,0,0,12.255,963.728,0.001,338.726,0.062,7.001e6,20.32,324.293,0.003,0.402,0.002
0.216,2.293,422.293,21.104,21.186,95.329,95.693,0.205,5.263e-8,0.205,1.474e-5,1.866,8.34,0.838,-1.429,0.052,0,0,0,85,0,1.137e5,5.305e4,173.345,0.821,9.808,NaN,323.184,NaN,1.2e4,10.757,3.873,0.452,0.323,0.023,0.106,0.452,NaN,NaN,NaN,NaN,NaN,NaN,NaN,NaN,0,0,12.255,963.722,0.001,338.725,0.063,7.081e6,20.32,324.293,0.003,0.404,0.002
0.218,2.346,422.346,21.342,21.425,95.302,95.666,0.209,5.329e-8,0.209,1.459e-5,1.886,8.338,0.838,-1.429,0.051,0,0,0,85,0,1.137e5,5.303e4,173.343,0.821,9.808,NaN,323.192,NaN,1.2e4,10.754,3.956,0.452,0.323,0.023,0.106,0.452,NaN,NaN,NaN,NaN,NaN,NaN,NaN,NaN,0,0,12.255,963.716,0.001,338.725,0.063,7.161e6,20.32,324.293,0.003,0.407,0.002
0.221,2.4,422.4,21.58,21.664,95.281,95.645,0.214,5.394e-8,0.214,1.444e-5,1.907,8.336,0.838,-1.429,0.051,0,0,0,85,0,1.137e5,5.302e4,173.339,0.821,9.808,NaN,323.202,NaN,1.199e4,10.752,4.039,0.451,0.322,0.023,0.106,0.451,NaN,NaN,NaN,NaN,NaN,NaN,NaN,NaN,0,0,12.254,963.71,0.001,338.725,0.064,7.241e6,20.32,324.293,0.003,0.409,0.002
0.223,2.454,422.454,21.818,21.903,95.25,95.614,0.219,5.46e-8,0.219,1.43e-5,1.928,8.333,0.838,-1.429,0.05,0,0,0,85,0,1.137e5,5.3e4,173.336,0.821,9.808,NaN,323.213,NaN,1.199e4,10.749,4.124,0.451,0.322,0.023,0.106,0.451,NaN,NaN,NaN,NaN,NaN,NaN,NaN,NaN,0,0,12.254,963.703,0.001,338.725,0.065,7.32e6,20.32,324.293,0.003,0.412,0.002
0.226,2.509,422.509,22.056,22.142,95.224,95.587,0.224,5.526e-8,0.224,1.416e-5,1.949,8.331,0.838,-1.429,0.05,0,0,0,85,0,1.137e5,5.298e4,173.333,0.821,9.808,NaN,323.224,NaN,1.198e4,10.746,4.209,0.45,0.321,0.023,0.106,0.45,NaN,NaN,NaN,NaN,NaN,NaN,NaN,NaN,0,0,12.254,963.697,0.001,338.725,0.065,7.4e6,20.32,324.293,0.003,0.414,0.002
0.228,2.564,422.564,22.294,22.381,95.196,95.56,0.229,5.591e-8,0.229,1.402e-5,1.97,8.329,0.838,-1.429,0.049,0,0,0,85,0,1.137e5,5.297e4,173.33,0.821,9.808,NaN,323.235,NaN,1.198e4,10.744,4.295,0.45,0.32,0.023,0.106,0.45,NaN,NaN,NaN,NaN,NaN,NaN,NaN,NaN,0,0,12.253,963.69,0.001,338.724,0.066,7.48e6,20.32,324.293,0.003,0.417,0.002
0.231,2.632,422.632,22.58,22.668,95.152,95.516,0.234,5.67e-8,0.234,1.386e-5,1.995,8.325,0.838,-1.429,0.049,0,0,0,85,0,1.137e5,5.296e4,173.327,0.821,9.808,NaN,323.243,NaN,1.197e4,10.739,4.399,0.449,0.32,0.023,0.106,0.449,NaN,NaN,NaN,NaN,NaN,NaN,NaN,NaN,0,0,12.253,963.682,0.001,338.724,0.067,7.576e6,20.32,324.293,0.003,0.419,0.002
0.234,2.688,422.688,22.818,22.907,95.118,95.481,0.239,5.736e-8,0.239,1.372e-5,2.016,8.322,0.838,-1.429,0.048,0,0,0,85,0,1.136e5,5.294e4,173.324,0.821,9.808,NaN,323.254,NaN,1.197e4,10.736,4.487,0.448,0.319,0.023,0.106,0.448,NaN,NaN,NaN,NaN,NaN,NaN,NaN,NaN,0,0,12.253,963.676,0.001,338.724,0.068,7.656e6,20.32,324.293,0.003,0.422,0.002
0.236,2.746,422.746,23.055,23.145,95.08,95.443,0.245,5.801e-8,0.245,1.359e-5,2.036,8.318,0.838,-1.429,0.048,0,0,0,85,0,1.136e5,5.292e4,173.345,0.821,9.808,NaN,323.313,NaN,1.196e4,10.732,4.575,0.448,0.319,0.023,0.106,0.448,NaN,NaN,NaN,NaN,NaN,NaN,NaN,NaN,0,0,12.252,963.669,0.001,338.724,0.068,7.735e6,20.32,324.293,0.003,0.425,0.002
0.239,2.804,422.804,23.293,23.384,95.057,95.42,0.25,5.867e-8,0.25,1.346e-5,2.057,8.316,0.838,-1.429,0.047,0,0,0,85,0,1.136e5,5.291e4,173.365,0.821,9.808,NaN,323.371,NaN,1.196e4,10.73,4.665,0.447,0.318,0.023,0.106,0.447,NaN,NaN,NaN,NaN,NaN,NaN,NaN,NaN,0,0,12.252,963.662,0.001,338.723,0.069,7.815e6,20.32,324.293,0.003,0.427,0.002
0.241,2.862,422.862,23.531,23.622,95.019,95.382,0.255,5.933e-8,0.255,1.334e-5,2.078,8.313,0.838,-1.429,0.047,0,0,0,85,0,1.136e5,5.289e4,173.362,0.82,9.808,NaN,323.382,NaN,1.195e4,10.726,4.755,0.447,0.318,0.023,0.106,0.447,NaN,NaN,NaN,NaN,NaN,NaN,NaN,NaN,0,0,12.251,963.655,0.001,338.723,0.07,7.895e6,20.32,324.293,0.003,0.43,0.002
0.244,2.933,422.933,23.816,23.908,95.002,95.365,0.261,6.011e-8,0.261,1.319e-5,2.103,8.312,0.838,-1.429,0.046,0,0,0,85,0,1.136e5,5.288e4,173.36,0.82,9.808,NaN,323.391,NaN,1.195e4,10.724,4.864,0.446,0.317,0.023,0.106,0.446,NaN,NaN,NaN,NaN,NaN,NaN,NaN,NaN,0,0,12.251,963.647,0.001,338.723,0.071,7.99e6,20.32,324.293,0.003,0.434,0.002
0.247,2.993,422.993,24.053,24.147,94.995,95.358,0.266,6.077e-8,0.266,1.307e-5,2.124,8.311,0.838,-1.429,0.046,0,0,0,85,0,1.136e5,5.286e4,173.356,0.82,9.808,NaN,323.401,NaN,1.194e4,10.724,4.956,0.446,0.316,0.023,0.106,0.446,NaN,NaN,NaN,NaN,NaN,NaN,NaN,NaN,0,0,12.251,963.64,0.001,338.723,0.071,8.07e6,20.32,324.293,0.003,0.438,0.002
0.249,3.053,423.053,24.291,24.385,94.966,95.329,0.272,6.143e-8,0.272,1.295e-5,2.144,8.308,0.838,-1.429,0.045,0,0,0,85,0,1.135e5,5.284e4,173.353,0.82,9.808,NaN,323.412,NaN,1.194e4,10.721,5.049,0.445,0.316,0.023,0.106,0.445,NaN,NaN,NaN,NaN,NaN,NaN,NaN,NaN,0,0,12.25,963.633,0.001,338.722,0.072,8.15e6,20.32,324.293,0.003,0.441,0.002
0.252,3.114,423.114,24.528,24.623,94.915,95.278,0.277,6.208e-8,0.277,1.284e-5,2.165,8.304,0.838,-1.429,0.045,0,0,0,85,0,1.135e5,5.283e4,173.35,0.82,9.808,NaN,323.423,NaN,1.193e4,10.716,5.142,0.445,0.315,0.023,0.106,0.445,NaN,NaN,NaN,NaN,NaN,NaN,NaN,NaN,0,0,12.25,963.626,0.001,338.722,0.073,8.229e6,20.32,324.293,0.003,0.444,0.002
0.254,3.176,423.176,24.765,24.862,94.87,95.233,0.283,6.274e-8,0.283,1.272e-5,2.186,8.3,0.838,-1.429,0.044,0,0,0,85,0,1.135e5,5.281e4,173.347,0.82,9.808,NaN,323.433,NaN,1.192e4,10.711,5.236,0.444,0.315,0.023,0.106,0.444,NaN,NaN,NaN,NaN,NaN,NaN,NaN,NaN,0,0,12.249,963.619,0.001,338.722,0.073,8.309e6,20.32,324.293,0.003,0.447,0.002
0.257,3.238,423.238,25.002,25.1,94.837,95.199,0.288,6.339e-8,0.288,1.261e-5,2.207,8.297,0.838,-1.429,0.044,0,0,0,85,0,1.135e5,5.28e4,173.344,0.82,9.808,NaN,323.443,NaN,1.192e4,10.708,5.331,0.444,0.314,0.023,0.106,0.444,NaN,NaN,NaN,NaN,NaN,NaN,NaN,NaN,0,0,12.249,963.611,0.001,338.722,0.074,8.388e6,20.32,324.293,0.003,0.449,0.002
0.259,3.301,423.301,25.239,25.338,94.81,95.172,0.294,6.405e-8,0.294,1.25e-5,2.227,8.295,0.838,-1.429,0.043,0,0,0,85,0,1.135e5,5.278e4,173.342,0.82,9.808,NaN,323.45,NaN,1.192e4,10.705,5.427,0.443,0.314,0.023,0.106,0.443,NaN,NaN,NaN,NaN,NaN,NaN,NaN,NaN,0,0,12.249,963.604,0.001,338.722,0.075,8.468e6,20.32,324.293,0.003,0.451,0.002
0.262,3.364,423.364,25.476,25.575,94.793,95.155,0.299,6.471e-8,0.299,1.239e-5,2.248,8.293,0.838,-1.429,0.043,0,0,0,85,0,1.135e5,5.277e4,173.339,0.82,9.808,NaN,323.461,NaN,1.191e4,10.703,5.523,0.443,0.313,0.023,0.106,0.443,NaN,NaN,NaN,NaN,NaN,NaN,NaN,NaN,0,0,12.248,963.596,0.001,338.721,0.076,8.547e6,20.32,324.293,0.003,0.454,0.003
0.264,3.428,423.428,25.713,25.813,94.762,95.124,0.305,6.536e-8,0.305,1.229e-5,2.269,8.291,0.838,-1.429,0.043,0,0,0,85,0,1.135e5,5.275e4,173.336,0.82,9.808,NaN,323.471,NaN,1.191e4,10.7,5.621,0.442,0.313,0.023,0.106,0.442,NaN,NaN,NaN,NaN,NaN,NaN,NaN,NaN,0,0,12.248,963.589,0.001,338.721,0.076,8.627e6,20.32,324.293,0.003,0.456,0.003
0.267,3.493,423.493,25.95,26.051,94.722,95.083,0.311,6.602e-8,0.311,1.218e-5,2.29,8.287,0.838,-1.429,0.042,0,0,0,85,0,1.134e5,5.274e4,173.332,0.82,9.808,NaN,323.482,NaN,1.19e4,10.696,5.719,0.442,0.313,0.023,0.106,0.442,NaN,NaN,NaN,NaN,NaN,NaN,NaN,NaN,0,0,12.247,963.581,0.001,338.721,0.077,8.706e6,20.32,324.293,0.003,0.459,0.003
0.269,3.558,423.558,26.187,26.289,94.688,95.05,0.316,6.668e-8,0.316,1.208e-5,2.31,8.284,0.838,-1.429,0.042,0,0,0,85,0,1.134e5,5.272e4,173.329,0.82,9.808,NaN,323.492,NaN,1.189e4,10.693,5.818,0.441,0.312,0.023,0.106,0.441,NaN,NaN,NaN,NaN,NaN,NaN,NaN,NaN,0,0,12.247,963.574,0.001,338.721,0.078,8.785e6,20.32,324.293,0.003,0.464,0.003
0.272,3.637,423.637,26.471,26.574,94.66,95.021,0.323,6.746e-8,0.323,1.196e-5,2.335,8.282,0.838,-1.429,0.041,0,0,0,85,0,1.134e5,5.271e4,173.327,0.82,9.808,NaN,323.501,NaN,1.189e4,10.69,5.937,0.441,0.312,0.023,0.106,0.441,NaN,NaN,NaN,NaN,NaN,NaN,NaN,NaN,0,0,12.246,963.564,0.001,338.72,0.078,8.881e6,20.32,324.293,0.003,0.467,0.003
0.275,3.704,423.704,26.708,26.811,94.632,94.993,0.329,6.812e-8,0.329,1.186e-5,2.356,8.279,0.838,-1.429,0.041,0,0,0,85,0,1.134e5,5.269e4,173.324,0.82,9.808,NaN,323.511,NaN,1.189e4,10.687,6.038,0.44,0.311,0.023,0.106,0.44,NaN,NaN,NaN,NaN,NaN,NaN,NaN,NaN,0,0,12.246,963.557,0.001,338.72,0.079,8.96e6,20.32,324.293,0.003,0.469,0.003
0.277,3.771,423.771,26.944,27.049,94.599,94.961,0.335,6.878e-8,0.335,1.176e-5,2.377,8.276,0.838,-1.429,0.041,0,0,0,85,0,1.134e5,5.267e4,173.321,0.819,9.808,NaN,323.522,NaN,1.188e4,10.684,6.139,0.44,0.311,0.023,0.106,0.44,NaN,NaN,NaN,NaN,NaN,NaN,NaN,NaN,0,0,12.245,963.549,0.001,338.72,0.08,9.039e6,20.32,324.293,0.003,0.475,0.003
0.28,3.838,423.838,27.181,27.286,94.581,94.942,0.341,6.943e-8,0.341,1.167e-5,2.397,8.275,0.838,-1.429,0.04,0,0,0,85,0,1.134e5,5.266e4,173.353,0.819,9.808,NaN,323.604,NaN,1.188e4,10.682,6.241,0.44,0.31,0.023,0.106,0.44,NaN,NaN,NaN,NaN,NaN,NaN,NaN,NaN,0,0,12.245,963.541,0.001,338.719,0.081,9.118e6,20.32,324.293,0.003,0.477,0.003
0.282,3.907,423.907,27.417,27.524,94.568,94.929,0.347,7.009e-8,0.347,1.157e-5,2.418,8.274,0.838,-1.429,0.04,0,0,0,85,0,1.133e5,5.264e4,173.362,0.819,9.808,NaN,323.638,NaN,1.187e4,10.681,6.344,0.439,0.31,0.023,0.106,0.439,NaN,NaN,NaN,NaN,NaN,NaN,NaN,NaN,0,0,12.245,963.533,0.001,338.719,0.081,9.198e6,20.32,324.293,0.003,0.481,0.003
0.285,3.975,423.975,27.654,27.761,94.553,94.914,0.353,7.074e-8,0.353,1.148e-5,2.439,8.272,0.838,-1.429,0.04,0,0,0,85,0,1.133e5,5.263e4,173.359,0.819,9.808,NaN,323.648,NaN,1.187e4,10.68,6.448,0.439,0.309,0.023,0.106,0.439,NaN,NaN,NaN,NaN,NaN,NaN,NaN,NaN,0,0,12.244,963.525,0.001,338.719,0.082,9.277e6,20.32,324.293,0.003,0.485,0.003
0.287,4.045,424.045,27.89,27.998,94.541,94.902,0.359,7.14e-8,0.359,1.139e-5,2.459,8.271,0.838,-1.429,0.039,0,0,0,85,0,1.133e5,5.261e4,173.357,0.819,9.808,NaN,323.655,NaN,1.187e4,10.679,6.553,0.438,0.309,0.023,0.106,0.438,NaN,NaN,NaN,NaN,NaN,NaN,NaN,NaN,0,0,12.244,963.517,0.001,338.719,0.083,9.356e6,20.32,324.293,0.003,0.489,0.003
0.29,4.115,424.115,28.126,28.235,94.516,94.877,0.365,7.206e-8,0.365,1.13e-5,2.48,8.269,0.838,-1.429,0.039,0,0,0,85,0,1.133e5,5.26e4,173.354,0.819,9.808,NaN,323.665,NaN,1.186e4,10.676,6.658,0.438,0.308,0.023,0.106,0.438,NaN,NaN,NaN,NaN,NaN,NaN,NaN,NaN,0,0,12.243,963.508,0.001,338.718,0.083,9.435e6,20.32,324.293,0.003,0.493,0.003
0.292,4.185,424.185,28.362,28.472,94.488,94.848,0.372,7.271e-8,0.372,1.121e-5,2.501,8.267,0.838,-1.429,0.039,0,0,0,85,0,1.133e5,5.258e4,173.351,0.819,9.808,NaN,323.676,NaN,1.186e4,10.673,6.764,0.438,0.308,0.023,0.106,0.438,NaN,NaN,NaN,NaN,NaN,NaN,NaN,NaN,0,0,12.243,963.5,0.001,338.718,0.084,9.515e6,20.32,324.293,0.003,0.497,0.003
0.295,4.257,424.257,28.599,28.71,94.471,94.832,0.378,7.337e-8,0.378,1.112e-5,2.521,8.265,0.838,-1.429,0.038,0,0,0,85,0,1.133e5,5.257e4,173.348,0.819,9.808,NaN,323.686,NaN,1.186e4,10.672,6.871,0.437,0.308,0.023,0.106,0.437,NaN,NaN,NaN,NaN,NaN,NaN,NaN,NaN,0,0,12.242,963.492,0.001,338.718,0.085,9.594e6,20.32,324.293,0.003,0.5,0.003
0.297,4.328,424.328,28.835,28.947,94.452,94.813,0.384,7.403e-8,0.384,1.104e-5,2.542,8.264,0.838,-1.429,0.038,0,0,0,85,0,1.133e5,5.255e4,173.345,0.819,9.808,NaN,323.697,NaN,1.185e4,10.67,6.978,0.437,0.307,0.023,0.106,0.437,NaN,NaN,NaN,NaN,NaN,NaN,NaN,NaN,0,0,12.242,963.483,0.001,338.717,0.085,9.673e6,20.32,324.293,0.003,0.505,0.003
0.3,4.415,424.415,29.118,29.231,94.427,94.788,0.392,7.481e-8,0.392,1.094e-5,2.567,8.261,0.838,-1.429,0.038,0,0,0,85,0,1.132e5,5.254e4,173.342,0.819,9.808,NaN,323.705,NaN,1.185e4,10.667,7.108,0.436,0.307,0.023,0.106,0.436,NaN,NaN,NaN,NaN,NaN,NaN,NaN,NaN,0,0,12.241,963.473,0.001,338.717,0.086,9.768e6,20.32,324.293,0.003,0.508,0.003
0.303,4.488,424.488,29.354,29.468,94.404,94.764,0.398,7.547e-8,0.398,1.086e-5,2.587,8.259,0.838,-1.429,0.037,0,0,0,85,0,1.132e5,5.252e4,173.339,0.819,9.808,NaN,323.715,NaN,1.184e4,10.665,7.218,0.436,0.306,0.023,0.106,0.436,NaN,NaN,NaN,NaN,NaN,NaN,NaN,NaN,0,0,12.241,963.465,0.001,338.717,0.087,9.847e6,20.32,324.293,0.003,0.511,0.003
0.305,4.562,424.562,29.59,29.705,94.376,94.736,0.405,7.613e-8,0.405,1.077e-5,2.608,8.257,0.838,-1.429,0.037,0,0,0,85,0,1.132e5,5.25e4,173.336,0.819,9.808,NaN,323.726,NaN,1.184e4,10.662,7.328,0.435,0.306,0.023,0.106,0.435,NaN,NaN,NaN,NaN,NaN,NaN,NaN,NaN,0,0,12.24,963.456,0.001,338.717,0.088,9.926e6,20.32,324.293,0.003,0.514,0.003
0.308,4.636,424.636,29.826,29.942,94.346,94.707,0.411,7.678e-8,0.411,1.069e-5,2.629,8.254,0.838,-1.429,0.037,0,0,0,85,0,1.132e5,5.249e4,173.333,0.819,9.808,NaN,323.736,NaN,1.183e4,10.659,7.439,0.435,0.306,0.023,0.106,0.435,NaN,NaN,NaN,NaN,NaN,NaN,NaN,NaN,0,0,12.24,963.447,0.001,338.716,0.088,1.001e7,20.32,324.293,0.003,0.516,0.003
0.31,4.711,424.711,30.062,30.178,94.316,94.676,0.418,7.744e-8,0.418,1.062e-5,2.649,8.252,0.838,-1.429,0.037,0,0,0,85,0,1.132e5,5.247e4,173.33,0.818,9.808,NaN,323.746,NaN,1.183e4,10.656,7.55,0.435,0.305,0.023,0.106,0.435,NaN,NaN,NaN,NaN,NaN,NaN,NaN,NaN,0,0,12.239,963.438,0.001,338.716,0.089,1.008e7,20.32,324.293,0.003,0.52,0.003
0.313,4.787,424.787,30.298,30.415,94.257,94.617,0.425,7.809e-8,0.425,1.054e-5,2.67,8.246,0.838,-1.429,0.036,0,0,0,85,0,1.132e5,5.246e4,173.327,0.818,9.808,NaN,323.756,NaN,1.182e4,10.65,7.663,0.434,0.305,0.023,0.106,0.434,NaN,NaN,NaN,NaN,NaN,NaN,NaN,NaN,0,0,12.239,963.43,0.001,338.716,0.09,1.016e7,20.32,324.293,0.003,0.523,0.003
0.315,4.863,424.863,30.533,30.652,94.232,94.592,0.431,7.875e-8,0.431,1.046e-5,2.691,8.244,0.838,-1.429,0.036,0,0,0,85,0,1.131e5,5.245e4,173.325,0.818,9.808,NaN,323.763,NaN,1.182e4,10.648,7.776,0.434,0.304,0.023,0.106,0.434,NaN,NaN,NaN,NaN,NaN,NaN,NaN,NaN,0,0,12.238,963.421,0.001,338.715,0.09,1.024e7,20.32,324.293,0.003,0.526,0.003
0.318,4.939,424.939,30.769,30.888,94.188,94.548,0.438,7.941e-8,0.438,1.039e-5,2.711,8.24,0.838,-1.429,0.036,0,0,0,85,0,1.131e5,5.243e4,173.334,0.818,9.808,NaN,323.797,NaN,1.181e4,10.644,7.889,0.434,0.304,0.023,0.106,0.434,NaN,NaN,NaN,NaN,NaN,NaN,NaN,NaN,0,0,12.238,963.412,0.001,338.715,0.091,1.032e7,20.32,324.293,0.003,0.529,0.003
0.32,5.017,425.017,31.004,31.124,94.136,94.496,0.445,8.006e-8,0.445,1.031e-5,2.732,8.236,0.838,-1.429,0.035,0,0,0,85,0,1.131e5,5.241e4,173.367,0.818,9.808,NaN,323.878,NaN,1.18e4,10.638,8.004,0.433,0.304,0.023,0.106,0.433,NaN,NaN,NaN,NaN,NaN,NaN,NaN,NaN,0,0,12.237,963.403,0.001,338.715,0.092,1.04e7,20.32,324.293,0.003,0.532,0.003
0.323,5.094,425.094,31.239,31.36,94.083,94.442,0.452,8.072e-8,0.452,1.024e-5,2.752,8.231,0.838,-1.429,0.035,0,0,0,85,0,1.131e5,5.24e4,173.364,0.818,9.808,NaN,323.888,NaN,1.179e4,10.633,8.119,0.433,0.303,0.023,0.106,0.433,NaN,NaN,NaN,NaN,NaN,NaN,NaN,NaN,0,0,12.237,963.394,0.001,338.714,0.093,1.048e7,20.32,324.293,0.003,0.534,0.003
0.325,5.173,425.173,31.475,31.596,94.002,94.361,0.459,8.138e-8,0.459,1.017e-5,2.773,8.224,0.838,-1.429,0.035,0,0,0,85,0,1.131e5,5.238e4,173.361,0.818,9.808,NaN,323.899,NaN,1.178e4,10.625,8.235,0.433,0.303,0.023,0.106,0.433,NaN,NaN,NaN,NaN,NaN,NaN,NaN,NaN,0,0,12.236,963.384,0.001,338.714,0.093,1.056e7,20.32,324.293,0.003,0.539,0.003
0.328,5.268,425.268,31.756,31.879,93.952,94.311,0.467,8.216e-8,0.467,1.008e-5,2.798,8.22,0.838,-1.429,0.035,0,0,0,85,0,1.131e5,5.237e4,173.359,0.818,9.808,NaN,323.907,NaN,1.178e4,10.62,8.375,0.432,0.302,0.023,0.106,0.432,NaN,NaN,NaN,NaN,NaN,NaN,NaN,NaN,0,0,12.236,963.373,0.001,338.714,0.094,1.065e7,20.32,324.293,0.003,0.541,0.003
0.331,5.347,425.347,31.991,32.115,93.874,94.233,0.474,8.282e-8,0.474,1.001e-5,2.818,8.213,0.838,-1.429,0.034,0,0,0,85,0,1.131e5,5.235e4,173.356,0.818,9.808,NaN,323.917,NaN,1.177e4,10.612,8.493,0.432,0.302,0.023,0.106,0.432,NaN,NaN,NaN,NaN,NaN,NaN,NaN,NaN,0,0,12.235,963.364,0.001,338.713,0.095,1.073e7,20.32,324.293,0.003,0.544,0.003
0.333,5.428,425.428,32.226,32.351,93.816,94.174,0.481,8.348e-8,0.481,9.942e-6,2.839,8.208,0.838,-1.429,0.034,0,0,0,85,0,1.13e5,5.234e4,173.353,0.818,9.808,NaN,323.927,NaN,1.176e4,10.606,8.611,0.432,0.302,0.023,0.107,0.432,NaN,NaN,NaN,NaN,NaN,NaN,NaN,NaN,0,0,12.235,963.354,0.001,338.713,0.096,1.081e7,20.32,324.293,0.003,0.546,0.003
0.336,5.508,425.508,32.46,32.586,93.738,94.096,0.488,8.413e-8,0.488,9.874e-6,2.859,8.201,0.838,-1.429,0.034,0,0,0,85,0,1.13e5,5.232e4,173.35,0.818,9.808,NaN,323.937,NaN,1.175e4,10.598,8.73,0.431,0.301,0.023,0.107,0.431,NaN,NaN,NaN,NaN,NaN,NaN,NaN,NaN,0,0,12.234,963.345,0.001,338.713,0.096,1.089e7,20.32,324.293,0.003,0.548,0.003
0.338,5.59,425.59,32.695,32.821,93.675,94.033,0.495,8.479e-8,0.495,9.807e-6,2.88,8.195,0.838,-1.429,0.034,0,0,0,85,0,1.13e5,5.23e4,173.347,0.818,9.808,NaN,323.947,NaN,1.174e4,10.592,8.85,0.431,0.301,0.023,0.107,0.431,NaN,NaN,NaN,NaN,NaN,NaN,NaN,NaN,0,0,12.234,963.335,0.001,338.713,0.097,1.097e7,20.32,324.293,0.003,0.552,0.003
0.341,5.672,425.672,32.929,33.056,93.622,93.98,0.503,8.544e-8,0.503,9.741e-6,2.9,8.191,0.838,-1.429,0.033,0,0,0,85,0,1.13e5,5.229e4,173.344,0.818,9.808,NaN,323.957,NaN,1.173e4,10.587,8.97,0.431,0.301,0.023,0.107,0.431,NaN,NaN,NaN,NaN,NaN,NaN,NaN,NaN,0,0,12.233,963.326,0.001,338.712,0.098,1.104e7,20.32,324.293,0.003,0.554,0.003
0.343,5.755,425.755,33.163,33.291,93.584,93.942,0.51,8.61e-8,0.51,9.675e-6,2.921,8.188,0.838,-1.429,0.033,0,0,0,85,0,1.13e5,5.228e4,173.342,0.818,9.808,NaN,323.964,NaN,1.173e4,10.583,9.091,0.43,0.3,0.023,0.107,0.43,NaN,NaN,NaN,NaN,NaN,NaN,NaN,NaN,0,0,12.233,963.316,0.001,338.712,0.098,1.112e7,20.32,324.293,0.003,0.556,0.003
0.346,5.838,425.838,33.397,33.526,93.529,93.886,0.517,8.676e-8,0.517,9.611e-6,2.941,8.183,0.838,-1.429,0.033,0,0,0,85,0,1.13e5,5.226e4,173.351,0.817,9.808,NaN,323.997,NaN,1.172e4,10.577,9.213,0.43,0.3,0.023,0.107,0.43,NaN,NaN,NaN,NaN,NaN,NaN,NaN,NaN,0,0,12.232,963.306,0.001,338.712,0.099,1.12e7,20.32,324.293,0.003,0.558,0.003
0.348,5.922,425.922,33.63,33.76,93.467,93.824,0.525,8.741e-8,0.525,9.548e-6,2.962,8.177,0.838,-1.429,0.033,0,0,0,85,0,1.129e5,5.224e4,173.384,0.817,9.808,NaN,324.078,NaN,1.171e4,10.571,9.335,0.43,0.3,0.023,0.107,0.43,NaN,NaN,NaN,NaN,NaN,NaN,NaN,NaN,0,0,12.232,963.297,0.001,338.711,0.1,1.128e7,20.32,324.293,0.003,0.561,0.003
0.351,6.006,426.006,33.864,33.995,93.386,93.743,0.532,8.807e-8,0.532,9.485e-6,2.982,8.17,0.838,-1.429,0.032,0,0,0,85,0,1.129e5,5.223e4,173.381,0.817,9.808,NaN,324.088,NaN,1.17e4,10.563,9.458,0.429,0.299,0.023,0.107,0.429,NaN,NaN,NaN,NaN,NaN,NaN,NaN,NaN,0,0,12.231,963.287,0.001,338.711,0.1,1.136e7,20.32,324.293,0.003,0.563,0.003
0.353,6.091,426.091,34.097,34.229,93.314,93.671,0.539,8.873e-8,0.539,9.423e-6,3.002,8.164,0.838,-1.429,0.032,0,0,0,85,0,1.129e5,5.221e4,173.378,0.817,9.808,NaN,324.098,NaN,1.169e4,10.556,9.582,0.429,0.299,0.023,0.107,0.429,NaN,NaN,NaN,NaN,NaN,NaN,NaN,NaN,0,0,12.23,963.277,0.001,338.711,0.101,1.144e7,20.32,324.293,0.003,0.566,0.003
0.356,6.194,426.194,34.377,34.51,93.271,93.627,0.549,8.951e-8,0.549,9.35e-6,3.027,8.16,0.838,-1.429,0.032,0,0,0,85,0,1.129e5,5.22e4,173.376,0.817,9.808,NaN,324.106,NaN,1.168e4,10.551,9.732,0.429,0.299,0.023,0.107,0.429,NaN,NaN,NaN,NaN,NaN,NaN,NaN,NaN,0,0,12.23,963.265,0.001,338.71,0.102,1.153e7,20.32,324.293,0.003,0.568,0.003
0.359,6.28,426.28,34.61,34.744,93.216,93.572,0.556,9.017e-8,0.556,9.29e-6,3.047,8.155,0.838,-1.429,0.032,0,0,0,85,0,1.129e5,5.218e4,173.373,0.817,9.808,NaN,324.116,NaN,1.168e4,10.546,9.857,0.428,0.298,0.023,0.107,0.428,NaN,NaN,NaN,NaN,NaN,NaN,NaN,NaN,0,0,12.229,963.255,0.001,338.71,0.103,1.161e7,20.32,324.293,0.003,0.571,0.003
0.361,6.367,426.367,34.843,34.978,93.164,93.52,0.564,9.083e-8,0.564,9.231e-6,3.068,8.151,0.838,-1.429,0.031,0,0,0,85,0,1.129e5,5.217e4,173.37,0.817,9.808,NaN,324.126,NaN,1.167e4,10.541,9.983,0.428,0.298,0.023,0.107,0.428,NaN,NaN,NaN,NaN,NaN,NaN,NaN,NaN,0,0,12.229,963.244,0.001,338.709,0.103,1.169e7,20.32,324.293,0.003,0.573,0.003
0.364,6.454,426.454,35.076,35.212,93.108,93.464,0.571,9.148e-8,0.571,9.172e-6,3.088,8.146,0.838,-1.429,0.031,0,0,0,85,0,1.129e5,5.215e4,173.367,0.817,9.808,NaN,324.136,NaN,1.166e4,10.535,10.11,0.428,0.298,0.023,0.107,0.428,NaN,NaN,NaN,NaN,NaN,NaN,NaN,NaN,0,0,12.228,963.234,0.001,338.709,0.104,1.176e7,20.32,324.293,0.003,0.575,0.003
0.366,6.542,426.542,35.309,35.445,93.049,93.404,0.579,9.214e-8,0.579,9.114e-6,3.108,8.141,0.838,-1.429,0.031,0,0,0,85,0,1.128e5,5.214e4,173.364,0.817,9.808,NaN,324.146,NaN,1.165e4,10.529,10.237,0.427,0.297,0.023,0.107,0.427,NaN,NaN,NaN,NaN,NaN,NaN,NaN,NaN,0,0,12.227,963.224,0.001,338.709,0.105,1.184e7,20.32,324.293,0.003,0.577,0.003
0.369,6.648,426.648,35.588,35.725,93.015,93.37,0.589,9.293e-8,0.589,9.046e-6,3.133,8.138,0.838,-1.429,0.031,0,0,0,85,0,1.128e5,5.212e4,173.361,0.817,9.808,NaN,324.154,NaN,1.165e4,10.526,10.391,0.427,0.297,0.023,0.107,0.427,NaN,NaN,NaN,NaN,NaN,NaN,NaN,NaN,0,0,12.227,963.211,0.001,338.708,0.105,1.194e7,20.32,324.293,0.003,0.579,0.004
0.372,6.738,426.738,35.82,35.959,92.971,93.326,0.596,9.358e-8,0.596,8.99e-6,3.153,8.134,0.838,-1.429,0.031,0,0,0,85,0,1.128e5,5.211e4,173.358,0.817,9.808,NaN,324.164,NaN,1.164e4,10.521,10.52,0.427,0.297,0.023,0.107,0.427,NaN,NaN,NaN,NaN,NaN,NaN,NaN,NaN,0,0,12.226,963.201,0.001,338.708,0.106,1.201e7,20.32,324.293,0.003,0.582,0.004
0.374,6.827,426.827,36.053,36.192,92.948,93.303,0.604,9.424e-8,0.604,8.935e-6,3.174,8.132,0.838,-1.429,0.03,0,0,0,85,0,1.128e5,5.209e4,173.355,0.817,9.808,NaN,324.174,NaN,1.164e4,10.519,10.65,0.426,0.296,0.023,0.107,0.426,NaN,NaN,NaN,NaN,NaN,NaN,NaN,NaN,0,0,12.226,963.19,0.001,338.708,0.107,1.209e7,20.32,324.293,0.003,0.584,0.004
0.377,6.918,426.918,36.285,36.425,92.903,93.258,0.612,9.489e-8,0.612,8.88e-6,3.194,8.128,0.838,-1.429,0.03,0,0,0,85,0,1.128e5,5.207e4,173.352,0.817,9.808,NaN,324.184,NaN,1.163e4,10.515,10.78,0.426,0.296,0.023,0.107,0.426,NaN,NaN,NaN,NaN,NaN,NaN,NaN,NaN,0,0,12.225,963.18,0.001,338.707,0.108,1.217e7,20.32,324.293,0.003,0.586,0.004
0.379,7.009,427.009,36.517,36.658,92.813,93.167,0.62,9.555e-8,0.62,8.826e-6,3.214,8.12,0.838,-1.429,0.03,0,0,0,85,0,1.128e5,5.206e4,173.349,0.816,9.808,NaN,324.194,NaN,1.162e4,10.506,10.911,0.426,0.296,0.023,0.107,0.426,NaN,NaN,NaN,NaN,NaN,NaN,NaN,NaN,0,0,12.224,963.169,0.001,338.707,0.108,1.225e7,20.32,324.293,0.003,0.589,0.004
0.382,7.1,427.1,36.749,36.891,92.787,93.141,0.628,9.621e-8,0.628,8.772e-6,3.234,8.118,0.838,-1.429,0.03,0,0,0,85,0,1.127e5,5.204e4,173.395,0.816,9.808,NaN,324.296,NaN,1.161e4,10.503,11.043,0.426,0.295,0.023,0.107,0.426,NaN,NaN,NaN,NaN,NaN,NaN,NaN,NaN,0,0,12.224,963.158,0.001,338.707,0.109,1.232e7,20.32,324.293,0.003,0.591,0.004
0.384,7.193,427.193,36.981,37.124,92.774,93.129,0.636,9.686e-8,0.636,8.72e-6,3.255,8.117,0.838,-1.429,0.03,0,0,0,85,0,1.127e5,5.203e4,173.393,0.816,9.808,NaN,324.303,NaN,1.161e4,10.502,11.176,0.425,0.295,0.023,0.107,0.425,NaN,NaN,NaN,NaN,NaN,NaN,NaN,NaN,0,0,12.223,963.147,0.001,338.706,0.11,1.24e7,20.32,324.293,0.003,0.593,0.004
0.387,7.285,427.285,37.213,37.357,92.752,93.106,0.645,9.752e-8,0.645,8.668e-6,3.275,8.115,0.838,-1.429,0.029,0,0,0,85,0,1.127e5,5.202e4,173.39,0.816,9.808,NaN,324.313,NaN,1.161e4,10.5,11.309,0.425,0.295,0.023,0.107,0.425,NaN,NaN,NaN,NaN,NaN,NaN,NaN,NaN,0,0,12.223,963.137,0.001,338.706,0.11,1.248e7,20.32,324.293,0.003,0.595,0.004
0.389,7.379,427.379,37.445,37.59,92.742,93.096,0.653,9.818e-8,0.653,8.616e-6,3.295,8.114,0.838,-1.429,0.029,0,0,0,85,0,1.127e5,5.2e4,173.387,0.816,9.808,NaN,324.322,NaN,1.16e4,10.499,11.443,0.425,0.294,0.023,0.107,0.425,NaN,NaN,NaN,NaN,NaN,NaN,NaN,NaN,0,0,12.222,963.126,0.001,338.705,0.111,1.256e7,20.32,324.293,0.003,0.597,0.004
0.392,7.473,427.473,37.677,37.822,92.744,93.098,0.661,9.883e-8,0.661,8.565e-6,3.316,8.114,0.838,-1.429,0.029,0,0,0,85,0,1.127e5,5.198e4,173.384,0.816,9.808,NaN,324.332,NaN,1.16e4,10.499,11.578,0.425,0.294,0.023,0.107,0.425,NaN,NaN,NaN,NaN,NaN,NaN,NaN,NaN,0,0,12.221,963.115,0.001,338.705,0.112,1.264e7,20.32,324.293,0.003,0.599,0.004
0.394,7.567,427.567,37.909,38.055,92.734,93.088,0.669,9.949e-8,0.669,8.515e-6,3.336,8.113,0.838,-1.429,0.029,0,0,0,85,0,1.127e5,5.197e4,173.381,0.816,9.808,NaN,324.342,NaN,1.16e4,10.498,11.713,0.424,0.294,0.023,0.107,0.424,NaN,NaN,NaN,NaN,NaN,NaN,NaN,NaN,0,0,12.221,963.104,0.001,338.705,0.112,1.271e7,20.32,324.293,0.003,0.602,0.004
0.397,7.681,427.681,38.187,38.334,92.708,93.062,0.679,1.003e-7,0.679,8.456e-6,3.36,8.111,0.838,-1.429,0.029,0,0,0,85,0,1.127e5,5.196e4,173.379,0.816,9.808,NaN,324.35,NaN,1.16e4,10.496,11.877,0.424,0.294,0.023,0.107,0.424,NaN,NaN,NaN,NaN,NaN,NaN,NaN,NaN,0,0,12.22,963.09,0.001,338.704,0.113,1.281e7,20.32,324.293,0.003,0.606,0.004
0.4,7.777,427.777,38.419,38.567,92.686,93.04,0.688,1.009e-7,0.688,8.407e-6,3.38,8.109,0.838,-1.429,0.029,0,0,0,85,0,1.126e5,5.194e4,173.376,0.816,9.808,NaN,324.36,NaN,1.159e4,10.494,12.014,0.424,0.293,0.023,0.107,0.424,NaN,NaN,NaN,NaN,NaN,NaN,NaN,NaN,0,0,12.219,963.079,0.001,338.704,0.114,1.288e7,20.32,324.293,0.003,0.609,0.004
0.402,7.873,427.873,38.65,38.8,92.659,93.013,0.696,1.016e-7,0.696,8.358e-6,3.401,8.107,0.838,-1.429,0.028,0,0,0,85,0,1.126e5,5.192e4,173.373,0.816,9.808,NaN,324.37,NaN,1.159e4,10.491,12.152,0.423,0.293,0.023,0.107,0.423,NaN,NaN,NaN,NaN,NaN,NaN,NaN,NaN,0,0,12.219,963.068,0.001,338.704,0.115,1.296e7,20.32,324.293,0.003,0.612,0.004
0.405,7.97,427.97,38.882,39.032,92.616,92.97,0.705,1.022e-7,0.705,8.311e-6,3.421,8.103,0.838,-1.429,0.028,0,0,0,85,0,1.126e5,5.191e4,173.37,0.816,9.808,NaN,324.379,NaN,1.158e4,10.487,12.29,0.423,0.293,0.024,0.107,0.423,NaN,NaN,NaN,NaN,NaN,NaN,NaN,NaN,0,0,12.218,963.056,0.001,338.703,0.115,1.304e7,20.32,324.293,0.003,0.615,0.004
0.407,8.068,428.068,39.113,39.264,92.593,92.947,0.713,1.029e-7,0.713,8.263e-6,3.441,8.101,0.838,-1.429,0.028,0,0,0,85,0,1.126e5,5.189e4,173.367,0.816,9.808,NaN,324.389,NaN,1.158e4,10.485,12.429,0.423,0.292,0.024,0.107,0.423,NaN,NaN,NaN,NaN,NaN,NaN,NaN,NaN,0,0,12.218,963.045,0.001,338.703,0.116,1.312e7,20.32,324.293,0.003,0.618,0.004
0.41,8.166,428.166,39.345,39.497,92.581,92.934,0.722,1.036e-7,0.722,8.217e-6,3.462,8.1,0.838,-1.429,0.028,0,0,0,85,0,1.126e5,5.188e4,173.364,0.816,9.808,NaN,324.398,NaN,1.157e4,10.483,12.569,0.423,0.292,0.024,0.107,0.423,NaN,NaN,NaN,NaN,NaN,NaN,NaN,NaN,0,0,12.217,963.033,0.001,338.702,0.117,1.319e7,20.32,324.293,0.003,0.621,0.004
0.412,8.264,428.264,39.576,39.729,92.563,92.916,0.731,1.042e-7,0.731,8.171e-6,3.482,8.098,0.838,-1.429,0.028,0,0,0,85,0,1.126e5,5.187e4,173.362,0.816,9.808,NaN,324.405,NaN,1.157e4,10.482,12.71,0.422,0.292,0.024,0.107,0.422,NaN,NaN,NaN,NaN,NaN,NaN,NaN,NaN,0,0,12.216,963.022,0.001,338.702,0.117,1.327e7,20.32,324.293,0.003,0.623,0.004
0.415,8.364,428.364,39.808,39.961,92.54,92.893,0.74,1.049e-7,0.74,8.125e-6,3.502,8.096,0.838,-1.429,0.028,0,0,0,85,0,1.126e5,5.185e4,173.359,0.815,9.808,NaN,324.415,NaN,1.157e4,10.479,12.851,0.422,0.292,0.024,0.107,0.422,NaN,NaN,NaN,NaN,NaN,NaN,NaN,NaN,0,0,12.216,963.01,0.001,338.702,0.118,1.335e7,20.32,324.293,0.003,0.625,0.004
0.417,8.464,428.464,40.039,40.194,92.52,92.873,0.748,1.055e-7,0.748,8.08e-6,3.522,8.094,0.838,-1.429,0.027,0,0,0,85,0,1.125e5,5.183e4,173.356,0.815,9.808,NaN,324.424,NaN,1.156e4,10.478,12.994,0.422,0.291,0.024,0.107,0.422,NaN,NaN,NaN,NaN,NaN,NaN,NaN,NaN,0,0,12.215,962.998,0.001,338.701,0.119,1.343e7,20.32,324.293,0.003,0.628,0.004
0.42,8.564,428.564,40.27,40.426,92.496,92.85,0.757,1.062e-7,0.757,8.035e-6,3.542,8.092,0.838,-1.429,0.027,0,0,0,85,0,1.125e5,5.182e4,173.353,0.815,9.808,NaN,324.434,NaN,1.156e4,10.475,13.136,0.422,0.291,0.024,0.107,0.422,NaN,NaN,NaN,NaN,NaN,NaN,NaN,NaN,0,0,12.214,962.987,0.001,338.701,0.119,1.35e7,20.32,324.293,0.003,0.63,0.004
0.422,8.665,428.665,40.501,40.658,92.481,92.834,0.766,1.068e-7,0.766,7.991e-6,3.563,8.091,0.838,-1.429,0.027,0,0,0,85,0,1.125e5,5.18e4,173.351,0.815,9.808,NaN,324.444,NaN,1.156e4,10.474,13.28,0.421,0.291,0.024,0.107,0.421,NaN,NaN,NaN,NaN,NaN,NaN,NaN,NaN,0,0,12.214,962.975,0.001,338.7,0.12,1.358e7,20.32,324.293,0.003,0.632,0.004
0.425,8.787,428.787,40.779,40.936,92.451,92.805,0.777,1.076e-7,0.777,7.939e-6,3.587,8.088,0.838,-1.429,0.027,0,0,0,85,0,1.125e5,5.179e4,173.348,0.815,9.808,NaN,324.452,NaN,1.155e4,10.471,13.453,0.421,0.29,0.024,0.107,0.421,NaN,NaN,NaN,NaN,NaN,NaN,NaN,NaN,0,0,12.213,962.96,0.001,338.7,0.121,1.367e7,20.32,324.293,0.003,0.635,0.004
0.428,8.889,428.889,41.01,41.168,92.436,92.789,0.786,1.083e-7,0.786,7.896e-6,3.607,8.087,0.838,-1.429,0.027,0,0,0,85,0,1.125e5,5.177e4,173.345,0.815,9.808,NaN,324.461,NaN,1.155e4,10.47,13.598,0.421,0.29,0.024,0.107,0.421,NaN,NaN,NaN,NaN,NaN,NaN,NaN,NaN,0,0,12.212,962.949,0.001,338.7,0.122,1.375e7,20.32,324.293,0.003,0.638,0.004
0.43,8.992,428.992,41.241,41.4,92.417,92.77,0.795,1.089e-7,0.795,7.853e-6,3.627,8.085,0.838,-1.429,0.027,0,0,0,85,0,1.125e5,5.176e4,173.342,0.815,9.808,NaN,324.471,NaN,1.155e4,10.468,13.744,0.421,0.29,0.024,0.107,0.421,NaN,NaN,NaN,NaN,NaN,NaN,NaN,NaN,0,0,12.212,962.936,0.001,338.699,0.122,1.383e7,20.32,324.293,0.003,0.64,0.004
0.433,9.095,429.095,41.472,41.632,92.4,92.753,0.804,1.096e-7,0.804,7.811e-6,3.648,8.084,0.838,-1.429,0.026,0,0,0,85,0,1.124e5,5.174e4,173.339,0.815,9.808,NaN,324.481,NaN,1.154e4,10.466,13.891,0.42,0.29,0.024,0.107,0.42,NaN,NaN,NaN,NaN,NaN,NaN,NaN,NaN,0,0,12.211,962.924,0.001,338.699,0.123,1.391e7,20.32,324.293,0.003,0.642,0.004
0.435,9.199,429.199,41.703,41.864,92.376,92.729,0.813,1.103e-7,0.813,7.77e-6,3.668,8.082,0.838,-1.429,0.026,0,0,0,85,0,1.124e5,5.173e4,173.336,0.815,9.808,NaN,324.49,NaN,1.154e4,10.464,14.038,0.42,0.289,0.024,0.107,0.42,NaN,NaN,NaN,NaN,NaN,NaN,NaN,NaN,0,0,12.21,962.912,0.001,338.698,0.124,1.398e7,20.32,324.293,0.003,0.645,0.004
0.438,9.304,429.304,41.934,42.096,92.358,92.711,0.822,1.109e-7,0.822,7.729e-6,3.688,8.08,0.838,-1.429,0.026,0,0,0,85,0,1.124e5,5.171e4,173.383,0.815,9.808,NaN,324.591,NaN,1.153e4,10.462,14.186,0.42,0.289,0.024,0.107,0.42,NaN,NaN,NaN,NaN,NaN,NaN,NaN,NaN,0,0,12.21,962.9,0.001,338.698,0.124,1.406e7,20.32,324.293,0.003,0.647,0.004
0.44,9.409,429.409,42.165,42.328,92.352,92.705,0.831,1.116e-7,0.831,7.688e-6,3.708,8.08,0.838,-1.429,0.026,0,0,0,85,0,1.124e5,5.17e4,173.381,0.815,9.808,NaN,324.598,NaN,1.153e4,10.462,14.335,0.42,0.289,0.024,0.107,0.42,NaN,NaN,NaN,NaN,NaN,NaN,NaN,NaN,0,0,12.209,962.888,0.001,338.697,0.125,1.414e7,20.32,324.293,0.003,0.649,0.004
0.443,9.515,429.515,42.396,42.559,92.324,92.677,0.841,1.122e-7,0.841,7.648e-6,3.728,8.077,0.838,-1.429,0.026,0,0,0,85,0,1.124e5,5.168e4,173.378,0.815,9.808,NaN,324.607,NaN,1.153e4,10.459,14.485,0.42,0.289,0.024,0.107,0.42,NaN,NaN,NaN,NaN,NaN,NaN,NaN,NaN,0,0,12.208,962.875,0.001,338.697,0.126,1.422e7,20.32,324.293,0.003,0.651,0.004
0.445,9.621,429.621,42.626,42.791,92.299,92.652,0.85,1.129e-7,0.85,7.608e-6,3.749,8.075,0.838,-1.429,0.026,0,0,0,85,0,1.124e5,5.167e4,173.375,0.815,9.808,NaN,324.617,NaN,1.152e4,10.457,14.635,0.419,0.288,0.024,0.107,0.419,NaN,NaN,NaN,NaN,NaN,NaN,NaN,NaN,0,0,12.207,962.863,0.001,338.697,0.126,1.429e7,20.32,324.293,0.003,0.653,0.004
0.448,9.728,429.728,42.857,43.023,92.286,92.638,0.859,1.135e-7,0.859,7.568e-6,3.769,8.074,0.838,-1.429,0.026,0,0,0,85,0,1.124e5,5.165e4,173.372,0.814,9.808,NaN,324.627,NaN,1.152e4,10.455,14.786,0.419,0.288,0.024,0.107,0.419,NaN,NaN,NaN,NaN,NaN,NaN,NaN,NaN,0,0,12.207,962.85,0.001,338.696,0.127,1.437e7,20.32,324.293,0.003,0.655,0.004
