# Time (s),Altitude (m),Vertical velocity (m/s),Vertical acceleration (m/s²),Total velocity (m/s),Total acceleration (m/s²),Position East of launch (m),Position North of launch (m),Lateral distance (m),Lateral direction (°),Lateral velocity (m/s),Lateral acceleration (m/s²),Latitude (°),Longitude (°),Gravitational acceleration (m/s²),Angle of attack (°),Roll rate (°/s),Pitch rate (°/s),Yaw rate (°/s),Mass (g),Motor mass (g),Longitudinal moment of inertia (kg·m²),Rotational moment of inertia (kg·m²),CP location (cm),CG location (cm),Stability margin calibers (​),Mach number (​),Reynolds number (​),Thrust (N),Drag force (N),Drag coefficient (​),Axial drag coefficient (​),Friction drag coefficient (​),Pressure drag coefficient (​),Base drag coefficient (​),Normal force coefficient (​),Pitch moment coefficient (​),Yaw moment coefficient (​),Side force coefficient (​),Roll moment coefficient (​),Roll forcing coefficient (​),Roll damping coefficient (​),Pitch damping coefficient (​),Coriolis acceleration (m/s²),Reference length (cm),Reference area (cm²),Vertical orientation (zenith) (°),Lateral orientation (azimuth) (°),Wind velocity (m/s),Air temperature (°C),Air pressure (mbar),Speed of sound (m/s),Simulation time step (s),Computation time (s)
0.01,0.006,1.107,110.766,1.107,110.766,0,0,0,0,0,0,28.61,-80.6,9.792,5.16,0,0,0,7.908e4,3.602e4,56.693,0.594,NaN,252.092,NaN,0.003,2.945e5,9533.407,0.015,0.577,0.615,0.459,0.013,0.105,NaN,NaN,NaN,NaN,NaN,NaN,NaN,NaN,1.418e-4,20.32,324.293,90,0,0.1,15,1013.249,340.389,0.01,0.017
0.02,0.022,2.213,110.649,2.213,110.649,0,0,0,0,0,0,28.61,-80.6,9.792,2.587,0,0,0,7.904e4,3.599e4,56.68,0.594,NaN,252.13,NaN,0.007,5.868e5,9520.26,0.051,0.513,0.523,0.395,0.013,0.105,NaN,NaN,NaN,NaN,NaN,NaN,NaN,NaN,2.833e-4,20.32,324.293,90,0,0.1,15,1013.247,340.389,0.01,0.021
0.03,0.05,3.318,110.531,3.318,110.531,0,0,0,0,0,0,28.61,-80.6,9.792,1.726,0,0,0,7.901e4,3.595e4,56.667,0.593,NaN,252.167,NaN,0.01,8.792e5,9507.113,0.106,0.482,0.486,0.363,0.013,0.105,NaN,NaN,NaN,NaN,NaN,NaN,NaN,NaN,4.248e-4,20.32,324.293,90,0,0.1,15,1013.244,340.389,0.01,0.023
0.04,0.088,4.422,110.396,4.422,110.396,0,0,0,0,0,0,28.61,-80.6,9.792,1.296,0,0,0,7.896e4,3.59e4,56.652,0.593,NaN,252.197,NaN,0.013,1.171e6,9490.698,0.18,0.462,0.464,0.343,0.013,0.105,NaN,NaN,NaN,NaN,NaN,NaN,NaN,NaN,5.661e-4,20.32,324.293,90,0,0.1,14.999,1013.24,340.389,0.01,0.024
0.05,0.138,5.524,110.219,5.524,110.219,0,0,0,0,0,0,28.61,-80.6,9.792,1.037,0,0,0,7.892e4,3.586e4,56.637,0.593,NaN,252.227,NaN,0.016,1.463e6,9471.013,0.272,0.448,0.449,0.329,0.013,0.105,NaN,NaN,NaN,NaN,NaN,NaN,NaN,NaN,7.072e-4,20.32,324.293,90,0,0.1,14.999,1013.234,340.388,0.01,0.026
0.06,0.199,6.624,110.059,6.624,110.059,0,0,0,0,0,0,28.61,-80.6,9.792,0.865,0,0,0,7.888e4,3.582e4,56.627,0.593,NaN,252.247,NaN,0.019,1.755e6,9454.618,0.381,0.436,0.437,0.318,0.013,0.106,NaN,NaN,NaN,NaN,NaN,NaN,NaN,NaN,8.481e-4,20.32,324.293,90,0,0.1,14.999,1013.227,340.388,0.01,0.028
0.07,0.271,7.723,109.94,7.723,109.94,0,0,0,0,0,0,28.61,-80.6,9.792,0.742,0,0,0,7.885e4,3.579e4,56.617,0.592,NaN,252.267,NaN,0.023,2.046e6,9441.515,0.507,0.428,0.428,0.309,0.013,0.106,NaN,NaN,NaN,NaN,NaN,NaN,NaN,NaN,9.888e-4,20.32,324.293,90,0,0.1,14.998,1013.218,340.388,0.01,0.029
0.08,0.353,8.821,109.821,8.821,109.821,0,0,0,0,0,0,28.61,-80.6,9.792,0.65,0,0,0,7.882e4,3.576e4,56.607,0.592,NaN,252.286,NaN,0.026,2.336e6,9428.412,0.65,0.42,0.421,0.301,0.013,0.106,NaN,NaN,NaN,NaN,NaN,NaN,NaN,NaN,0.001,20.32,324.293,90,0,0.1,14.998,1013.209,340.388,0.01,0.031
0.09,0.447,9.918,109.685,9.918,109.685,0,0,0,0,0,0,28.61,-80.6,9.792,0.578,0,0,0,7.877e4,3.571e4,56.592,0.592,NaN,252.316,NaN,0.029,2.627e6,9412.048,0.809,0.414,0.414,0.295,0.013,0.106,NaN,NaN,NaN,NaN,NaN,NaN,NaN,NaN,0.001,20.32,324.293,90,0,0.1,14.997,1013.198,340.387,0.01,0.032
0.1,0.552,11.012,109.507,11.012,109.507,0,0,0,0,0,0,28.61,-80.6,9.792,0.52,0,0,0,7.872e4,3.566e4,56.577,0.592,NaN,252.345,NaN,0.032,2.917e6,9392.423,0.984,0.408,0.409,0.289,0.013,0.106,NaN,NaN,NaN,NaN,NaN,NaN,NaN,NaN,0.001,20.32,324.293,90,0,0.1,14.996,1013.185,340.387,0.01,0.034
0.109,0.656,12.005,109.349,12.005,109.349,0,0,0,0,0,0,28.61,-80.6,9.792,0.477,0,0,0,7.869e4,3.563e4,56.568,0.592,NaN,252.363,NaN,0.035,3.18e6,9376.68,1.157,0.404,0.404,0.285,0.013,0.106,NaN,NaN,NaN,NaN,NaN,NaN,NaN,NaN,0.002,20.32,324.293,90,0,0.1,14.996,1013.173,340.386,0.009,0.036
0.117,0.76,12.915,109.243,12.915,109.243,0,0,0,0,0,0,28.61,-80.6,9.792,0.444,0,0,0,7.867e4,3.561e4,56.559,0.592,NaN,252.379,NaN,0.038,3.421e6,9365.311,1.327,0.4,0.4,0.281,0.013,0.106,NaN,NaN,NaN,NaN,NaN,NaN,NaN,NaN,0.002,20.32,324.293,90,0,0.1,14.995,1013.161,340.386,0.008,0.037
0.125,0.863,13.76,109.145,13.76,109.145,0,0,0,0,0,0,28.61,-80.6,9.792,0.416,0,0,0,7.864e4,3.558e4,56.552,0.591,NaN,252.394,NaN,0.04,3.644e6,9354.815,1.494,0.397,0.397,0.278,0.013,0.106,NaN,NaN,NaN,NaN,NaN,NaN,NaN,NaN,0.002,20.32,324.293,90,0,0.1,14.994,1013.149,340.385,0.008,0.039
0.132,0.966,14.552,109.057,14.552,109.057,0,0,0,0,0,0,28.61,-80.6,9.792,0.394,0,0,0,7.861e4,3.555e4,56.543,0.591,NaN,252.411,NaN,0.043,3.854e6,9344.752,1.66,0.394,0.395,0.275,0.013,0.106,NaN,NaN,NaN,NaN,NaN,NaN,NaN,NaN,0.002,20.32,324.293,90,0,0.1,14.994,1013.137,340.385,0.007,0.04
0.139,1.069,15.301,108.942,15.301,108.942,0,0,0,0,0,0,28.61,-80.6,9.792,0.374,0,0,0,7.858e4,3.552e4,56.533,0.591,NaN,252.431,NaN,0.045,4.052e6,9331.976,1.824,0.392,0.392,0.273,0.013,0.106,NaN,NaN,NaN,NaN,NaN,NaN,NaN,NaN,0.002,20.32,324.293,90,0,0.1,14.993,1013.125,340.385,0.007,0.042
0.15,1.232,16.422,108.8,16.422,108.8,-3.168e-7,0,3.168e-7,-180,6.22e-5,0.006,28.61,-80.6,9.792,0.349,0,0.001,-2.422e-6,7.853e4,3.547e4,56.518,0.591,295.661,252.461,2.126,0.048,4.349e6,9315.179,2.083,0.389,0.389,0.27,0.013,0.106,0.061,0.129,-1.373e-5,0,0,0,0,1.802e-8,0.002,20.32,324.293,90,0,0.1,14.992,1013.105,340.384,0.01,0.045
0.165,1.499,18.101,108.611,18.101,108.611,-2.05e-6,0,2.05e-6,-180,1.636e-4,0.007,28.61,-80.6,9.792,0.316,0,0.004,-1.989e-6,7.848e4,3.542e4,56.502,0.591,295.764,252.491,2.13,0.053,4.794e6,9294.78,2.502,0.384,0.384,0.265,0.013,0.106,0.055,0.117,2.813e-4,0,0,0,0,1.03e-7,0.002,20.32,324.293,90,0,0.1,14.99,1013.074,340.383,0.015,0.047
0.188,1.948,20.614,108.402,20.614,108.402,-7.768e-6,0,7.768e-6,180,3.32e-4,0.008,28.61,-80.6,9.792,0.277,0,0.008,1.41e-5,7.839e4,3.533e4,56.475,0.59,295.89,252.544,2.133,0.061,5.459e6,9268.669,3.196,0.379,0.379,0.259,0.013,0.106,0.048,0.103,1.787e-4,0,0,0,0,3.314e-7,0.003,20.32,324.293,90,0.017,0.1,14.987,1013.022,340.381,0.023,0.049
0.223,2.73,24.367,107.965,24.367,107.965,-2.403e-5,0,2.403e-5,180,6.067e-4,0.008,28.61,-80.6,9.792,0.233,0,0.014,1.351e-5,7.826e4,3.52e4,56.435,0.589,296.033,252.622,2.136,0.072,6.453e6,9220.254,4.382,0.372,0.372,0.252,0.013,0.106,0.04,0.087,8.924e-6,0,0,0,0,8.42e-7,0.003,20.32,324.293,89.999,-0.001,0.1,14.982,1012.93,340.378,0.035,0.052
0.273,4.083,29.733,107.399,29.733,107.399,-6.468e-5,0,6.468e-5,179.999,0.001,0.008,28.61,-80.6,9.792,0.189,0,0.026,2.894e-5,7.807e4,3.501e4,56.371,0.588,296.182,252.775,2.136,0.087,7.873e6,9155.451,6.385,0.364,0.364,0.244,0.014,0.106,0.033,0.07,-2.632e-4,0,0,0,0,1.851e-6,0.004,20.32,324.293,89.998,0.008,0.1,14.973,1012.771,340.373,0.05,0.055
0.323,5.703,35.06,106.662,35.06,106.662,-1.253e-4,0,1.253e-4,179.999,0.001,0.007,28.61,-80.6,9.792,0.158,0,0.04,2.328e-6,7.788e4,3.482e4,56.311,0.587,296.293,252.899,2.136,0.103,9.282e6,9077.915,8.728,0.358,0.358,0.237,0.014,0.107,0.027,0.058,4.616e-4,0,0,0,0,3.107e-6,0.004,20.32,324.293,89.997,-0.007,0.1,14.963,1012.581,340.366,0.05,0.057
0.373,7.588,40.35,105.92,40.35,105.92,-2.022e-4,0,2.022e-4,179.999,0.002,0.004,28.61,-80.6,9.792,0.134,0,0.055,5.911e-5,7.769e4,3.463e4,56.253,0.586,296.383,253.009,2.135,0.119,1.068e7,9000.641,11.401,0.353,0.353,0.232,0.014,0.107,0.023,0.049,6.538e-6,0,0,0,0,4.561e-6,0.005,20.32,324.293,89.994,0.001,0.1,14.951,1012.36,340.359,0.05,0.067
0.423,9.737,45.604,105.173,45.604,105.173,-2.881e-4,0,2.881e-4,179.999,0.002,0.001,28.61,-80.6,9.792,0.115,0,0.073,1.644e-5,7.75e4,3.444e4,56.196,0.586,296.46,253.119,2.133,0.134,1.207e7,8923.628,14.396,0.349,0.349,0.227,0.014,0.108,0.02,0.042,-4.75e-4,0,0,0,0,6.165e-6,0.006,20.32,324.293,89.991,-0.002,0.1,14.937,1012.108,340.351,0.05,0.07
0.473,12.147,50.819,104.418,50.819,104.418,-3.709e-4,0,3.709e-4,180,0.002,0.008,28.61,-80.6,9.792,0.098,0,0.092,6.378e-5,7.73e4,3.425e4,56.14,0.585,296.531,253.228,2.131,0.149,1.345e7,8846.875,17.843,0.348,0.348,0.226,0.014,0.108,0.017,0.036,2.976e-4,0,0,0,0,7.824e-6,0.007,20.32,324.293,89.987,-0.016,0.1,14.921,1011.825,340.341,0.05,0.072
0.523,14.818,55.997,103.658,55.997,103.658,-4.34e-4,-2.115e-8,4.34e-4,-179.997,9.273e-4,0.017,28.61,-80.6,9.792,0.083,0,0.111,-2.327e-4,7.711e4,3.406e4,56.078,0.584,296.598,253.371,2.127,0.165,1.482e7,8770.382,21.698,0.349,0.349,0.226,0.014,0.109,0.014,0.031,1.476e-4,0,0,0,0,9.467e-6,0.007,20.32,324.293,89.982,-0.006,0.1,14.904,1011.512,340.331,0.05,0.074
0.573,17.746,61.137,102.892,61.137,102.892,-4.556e-4,-5.057e-8,4.556e-4,-179.994,1.597e-4,0.028,28.61,-80.6,9.792,0.07,0,0.131,-1.93e-4,7.693e4,3.387e4,56.021,0.583,296.663,253.488,2.125,0.18,1.617e7,8694.149,25.907,0.35,0.35,0.226,0.015,0.109,0.012,0.026,1.489e-4,0,0,0,0,1.106e-5,0.008,20.32,324.293,89.976,0.014,0.1,14.885,1011.169,340.319,0.05,0.076
0.623,20.93,66.238,102.12,66.238,102.12,-4.082e-4,-4.845e-8,4.082e-4,-179.993,0.002,0.041,28.61,-80.6,9.792,0.057,0,0.15,-4.138e-4,7.674e4,3.368e4,55.966,0.582,296.728,253.592,2.123,0.195,1.752e7,8618.175,30.466,0.35,0.35,0.226,0.015,0.11,0.01,0.021,-4.466e-4,0,0,0,0,1.234e-5,0.008,20.32,324.293,89.969,0.026,0.1,14.864,1010.795,340.306,0.05,0.078
0.673,24.369,71.3,101.343,71.3,101.343,-2.592e-4,2.129e-8,2.592e-4,179.995,0.004,0.056,28.61,-80.6,9.792,0.045,0,0.168,-2.772e-4,7.655e4,3.349e4,55.911,0.581,296.793,253.695,2.121,0.21,1.885e7,8542.462,35.37,0.351,0.351,0.226,0.015,0.11,0.008,0.016,1.134e-4,0,0,0,0,1.336e-5,0.009,20.32,324.293,89.961,0.028,0.1,14.842,1010.392,340.293,0.05,0.081
0.723,28.059,76.324,100.56,76.324,100.56,2.969e-5,1.891e-7,2.969e-5,0.365,0.007,0.073,28.61,-80.6,9.792,0.033,0,0.184,-5.985e-4,7.636e4,3.33e4,55.856,0.58,296.858,253.797,2.119,0.224,2.017e7,8467.009,40.613,0.352,0.352,0.225,0.015,0.111,0.006,0.012,2.24e-4,0,0,0,0,1.405e-5,0.01,20.32,324.293,89.952,0.029,0.1,14.818,1009.959,340.278,0.05,0.083
0.773,32,81.308,99.772,81.308,99.772,5.015e-4,4.847e-7,5.015e-4,0.055,0.012,0.093,28.61,-80.6,9.792,0.021,0,0.196,-6.991e-4,7.617e4,3.311e4,55.798,0.579,296.925,253.932,2.116,0.239,2.148e7,8391.818,46.192,0.353,0.353,0.225,0.016,0.112,0.004,0.008,-4.372e-4,0,0,0,0,1.4e-5,0.01,20.32,324.293,89.943,0.033,0.1,14.792,1009.497,340.263,0.05,0.085
0.823,36.189,86.253,98.978,86.253,98.978,0.001,9.466e-7,0.001,0.045,0.017,0.113,28.61,-80.6,9.792,0.01,0,0.204,7.932e-5,7.598e4,3.292e4,55.743,0.578,296.992,254.042,2.114,0.254,2.278e7,8316.893,52.102,0.354,0.354,0.225,0.016,0.113,0.002,0.003,1.509e-4,0,0,0,0,1.355e-5,0.011,20.32,324.293,89.933,0.024,0.1,14.765,1009.006,340.246,0.05,0.087
0.873,40.624,91.158,98.179,91.158,98.179,0.002,1.553e-6,0.002,0.041,0.023,0.135,28.61,-80.6,9.792,2.979e-4,0,0,0,7.58e4,3.274e4,55.69,0.577,296.897,254.139,2.104,0.268,2.407e7,8242.22,58.337,0.355,0.355,0.225,0.016,0.114,5.121e-5,2.154e-4,1.21e-5,0,0,0,0,0,0.012,20.32,324.293,89.922,0.012,0.1,14.736,1008.485,340.229,0.05,0.089
0.923,45.304,96.023,97.374,96.023,97.374,0.004,2.256e-6,0.004,0.037,0.03,0.156,28.61,-80.6,9.792,0.01,0,-0.204,-6.925e-4,7.561e4,3.255e4,55.637,0.576,297.056,254.235,2.107,0.282,2.535e7,8167.808,64.894,0.356,0.356,0.225,0.017,0.115,0.002,0.003,-1.435e-4,0,0,0,0,-1.089e-5,0.012,20.32,324.293,89.912,4.432e-4,0.1,14.706,1007.937,340.21,0.05,0.091
0.973,50.225,100.847,96.564,100.847,96.564,0.005,2.968e-6,0.005,0.033,0.038,0.177,28.61,-80.6,9.792,0.019,0,-0.192,2.258e-4,7.542e4,3.237e4,55.584,0.575,297.069,254.33,2.103,0.296,2.661e7,8093.663,71.768,0.357,0.357,0.225,0.017,0.116,0.003,0.007,4.625e-4,0,0,0,0,-8.763e-6,0.013,20.32,324.293,89.902,-0.013,0.1,14.674,1007.359,340.191,0.05,0.093
1.023,55.387,105.634,95.809,105.634,95.809,0.007,3.532e-6,0.007,0.027,0.048,0.197,28.61,-80.6,9.792,0.027,0,-0.175,2.812e-6,7.524e4,3.218e4,55.528,0.574,297.081,254.458,2.098,0.311,2.786e7,8024.278,78.96,0.358,0.358,0.224,0.017,0.116,0.005,0.01,-3.148e-4,0,0,0,0,-6.595e-6,0.014,20.32,324.293,89.893,-0.031,0.1,14.64,1006.754,340.171,0.05,0.095
1.073,60.788,110.408,95.545,110.408,95.545,0.01,3.773e-6,0.01,0.022,0.058,0.216,28.61,-80.6,9.792,0.033,0,-0.148,-5.592e-4,7.505e4,3.199e4,55.475,0.573,297.098,254.56,2.093,0.325,2.911e7,7992.475,86.506,0.359,0.359,0.224,0.018,0.118,0.006,0.012,2.65e-4,0,0,0,0,-4.331e-6,0.014,20.32,324.293,89.885,-0.037,0.1,14.605,1006.121,340.149,0.05,0.098
1.123,66.428,115.175,95.396,115.175,95.396,0.013,3.596e-6,0.013,0.016,0.069,0.231,28.61,-80.6,9.792,0.037,0,-0.114,0.001,7.487e4,3.181e4,55.424,0.572,297.124,254.651,2.09,0.339,3.035e7,7969.757,94.419,0.361,0.361,0.224,0.018,0.119,0.006,0.013,-1.361e-4,0,0,0,0,-2.342e-6,0.015,20.32,324.293,89.878,-0.034,0.1,14.568,1005.459,340.127,0.05,0.1
1.173,72.306,119.934,95.24,119.934,95.24,0.017,2.987e-6,0.017,0.01,0.081,0.242,28.61,-80.6,9.792,0.04,0,-0.074,-2.786e-4,7.469e4,3.163e4,55.373,0.571,297.154,254.741,2.087,0.353,3.159e7,7947.055,102.702,0.362,0.362,0.224,0.019,0.12,0.007,0.015,3.435e-6,0,0,0,0,-9.186e-7,0.015,20.32,324.293,89.874,-0.026,0.1,14.53,1004.77,340.104,0.05,0.102
1.223,78.421,124.685,95.079,124.685,95.079,0.021,2.059e-6,0.021,0.006,0.093,0.248,28.61,-80.6,9.792,0.04,0,-0.028,3.376e-4,7.45e4,3.144e4,55.323,0.57,297.193,254.83,2.085,0.367,3.283e7,7924.373,111.36,0.363,0.363,0.223,0.019,0.121,0.007,0.015,-1.68e-4,0,0,0,0,-1.209e-7,0.016,20.32,324.293,89.871,-0.015,0.1,14.49,1004.053,340.08,0.05,0.104
1.273,84.774,129.427,94.911,129.427,94.911,0.026,9.908e-7,0.026,0.002,0.106,0.249,28.61,-80.6,9.792,0.038,0,0.02,-4.195e-4,7.432e4,3.126e4,55.269,0.569,297.246,254.949,2.082,0.381,3.406e7,7901.71,120.398,0.365,0.365,0.223,0.019,0.122,0.007,0.013,-1.04e-4,0,0,0,0,5.824e-8,0.017,20.32,324.293,89.871,-0.004,0.1,14.449,1003.307,340.055,0.05,0.106
1.323,91.364,134.162,94.737,134.162,94.737,0.032,-1.074e-7,0.032,-1.93e-4,0.118,0.243,28.61,-80.6,9.792,0.034,0,0.067,0.002,7.413e4,3.108e4,55.218,0.568,297.305,255.045,2.08,0.395,3.529e7,7879.058,129.818,0.366,0.366,0.223,0.02,0.123,0.006,0.012,3.407e-4,0,0,0,0,6.06e-7,0.017,20.32,324.293,89.873,0.004,0.1,14.406,1002.535,340.029,0.05,0.108
1.373,98.19,138.887,94.556,138.887,94.556,0.038,-1.127e-6,0.038,-0.002,0.13,0.23,28.61,-80.6,9.792,0.028,0,0.11,0.001,7.395e4,3.089e4,55.169,0.567,297.368,255.13,2.079,0.408,3.651e7,7856.426,139.627,0.368,0.368,0.223,0.021,0.125,0.005,0.011,2.176e-4,0,0,0,0,1.52e-6,0.018,20.32,324.293,89.878,0.021,0.1,14.362,1001.734,340.002,0.05,0.11
1.423,105.252,143.603,94.369,143.603,94.369,0.045,-1.796e-6,0.045,-0.002,0.141,0.212,28.61,-80.6,9.792,0.02,0,0.147,9.526e-4,7.377e4,3.071e4,55.119,0.566,297.443,255.213,2.078,0.422,3.773e7,7833.815,149.829,0.369,0.369,0.222,0.021,0.126,0.003,0.007,-1.776e-4,0,0,0,0,2.543e-6,0.018,20.32,324.293,89.884,0.037,0.1,14.316,1000.906,339.974,0.05,0.112
1.473,112.55,148.309,94.175,148.31,94.175,0.052,-1.935e-6,0.052,-0.002,0.151,0.189,28.61,-80.6,9.792,0.011,0,0.171,0.001,7.359e4,3.053e4,55.071,0.565,297.488,255.296,2.076,0.436,3.895e7,7811.216,160.429,0.371,0.371,0.222,0.022,0.127,0.002,0.004,2.41e-4,0,0,0,0,3.192e-6,0.019,20.32,324.293,89.892,0.057,0.1,14.268,1000.05,339.946,0.05,0.114
1.523,120.083,153.006,93.974,153.006,93.974,0.06,-1.287e-6,0.06,-0.001,0.16,0.162,28.61,-80.6,9.792,0.002,-2.914e-7,0.181,0.015,7.341e4,3.035e4,55.019,0.564,297.322,255.408,2.063,0.45,4.016e7,7788.634,171.432,0.373,0.373,0.222,0.022,0.129,3.428e-4,0.001,-4.713e-4,0,0,0,0,3.357e-6,0.02,20.32,324.293,89.901,0.068,0.1,14.219,999.166,339.916,0.05,0.116
1.573,127.85,157.692,93.766,157.693,93.766,0.068,2.879e-7,0.068,2.422e-4,0.167,0.135,28.61,-80.6,9.792,0.007,0,-0.179,0.004,7.323e4,3.017e4,54.97,0.563,297.732,255.497,2.078,0.464,4.136e7,7766.073,182.844,0.375,0.375,0.222,0.023,0.13,0.001,0.002,1.976e-4,0,0,0,0,-3.092e-6,0.02,20.32,324.293,89.91,0.09,0.1,14.169,998.255,339.885,0.05,0.118
1.623,135.852,162.368,93.551,162.368,93.551,0.077,2.942e-6,0.077,0.002,0.173,0.108,28.61,-80.6,9.792,0.015,0,-0.155,0.003,7.305e4,2.999e4,54.922,0.563,297.718,255.576,2.074,0.478,4.256e7,7743.531,194.672,0.377,0.377,0.221,0.024,0.132,0.003,0.005,-6.068e-5,0,0,0,0,-2.201e-6,0.021,20.32,324.293,89.918,0.11,0.1,14.117,997.317,339.854,0.05,0.12
1.673,144.087,167.033,93.329,167.033,93.329,0.085,6.724e-6,0.085,0.005,0.178,0.086,28.61,-80.6,9.792,0.021,0,-0.121,0.004,7.287e4,2.981e4,54.875,0.562,297.753,255.653,2.072,0.492,4.376e7,7721.007,206.919,0.378,0.378,0.221,0.024,0.133,0.004,0.007,-2.421e-4,0,0,0,0,-1.258e-6,0.021,20.32,324.293,89.925,0.1,0.1,14.063,996.351,339.821,0.05,0.122
1.723,152.555,171.687,93.1,171.687,93.1,0.094,1.15e-5,0.094,0.007,0.182,0.07,28.61,-80.6,9.792,0.024,0,-0.07,-0.001,7.269e4,2.963e4,54.827,0.561,297.79,255.729,2.07,0.505,4.495e7,7698.496,219.594,0.38,0.38,0.221,0.025,0.135,0.004,0.009,-6.095e-5,0,0,0,0,-3.969e-7,0.022,20.32,324.293,89.93,0.092,0.1,14.008,995.358,339.788,0.05,0.124
1.773,161.255,176.329,92.863,176.329,92.863,0.104,1.706e-5,0.104,0.009,0.185,0.062,28.61,-80.6,9.792,0.025,0,-0.018,-0.001,7.251e4,2.945e4,54.777,0.56,297.86,255.834,2.068,0.519,4.613e7,7676.004,232.704,0.383,0.383,0.22,0.026,0.136,0.004,0.009,-4.687e-4,0,0,0,0,-2.385e-8,0.023,20.32,324.293,89.932,0.107,0.1,13.952,994.337,339.754,0.05,0.126
1.823,170.187,180.959,92.618,180.959,92.618,0.113,2.351e-5,0.113,0.012,0.188,0.064,28.61,-80.6,9.792,0.023,0,0.045,4.138e-4,7.233e4,2.927e4,54.73,0.559,297.939,255.917,2.068,0.533,4.731e7,7653.526,246.254,0.385,0.385,0.22,0.027,0.138,0.004,0.009,2.653e-4,0,0,0,0,1.474e-7,0.023,20.32,324.293,89.932,0.096,0.1,13.894,993.29,339.719,0.05,0.128
1.873,179.35,185.576,92.365,185.576,92.365,0.122,3.081e-5,0.122,0.014,0.192,0.075,28.61,-80.6,9.792,0.018,0,0.1,-0.002,7.215e4,2.909e4,54.684,0.558,298.028,255.99,2.069,0.546,4.848e7,7631.07,260.251,0.387,0.387,0.22,0.028,0.14,0.003,0.006,8.584e-5,0,0,0,0,6.985e-7,0.024,20.32,324.293,89.928,0.087,0.1,13.834,992.215,339.682,0.05,0.13
1.923,188.744,190.181,92.105,190.181,92.105,0.132,3.885e-5,0.132,0.017,0.196,0.095,28.61,-80.6,9.792,0.011,0,0.137,4.048e-4,7.197e4,2.891e4,54.638,0.557,298.16,256.061,2.072,0.56,4.965e7,7608.632,274.708,0.389,0.389,0.219,0.029,0.141,0.002,0.004,-2.754e-4,0,0,0,0,1.248e-6,0.024,20.32,324.293,89.922,0.082,0.1,13.773,991.113,339.645,0.05,0.132
1.973,198.368,194.772,91.836,194.772,91.836,0.142,4.768e-5,0.142,0.019,0.201,0.12,28.61,-80.6,9.792,0.003,0,0.154,-0.002,7.18e4,2.874e4,54.592,0.556,298.263,256.131,2.073,0.574,5.081e7,7586.208,289.631,0.392,0.392,0.219,0.03,0.143,5.932e-4,0.002,-1.335e-5,0,0,0,0,1.504e-6,0.025,20.32,324.293,89.915,0.064,0.1,13.711,989.985,339.608,0.05,0.134
2.023,208.221,199.35,91.559,199.35,91.559,0.152,5.703e-5,0.152,0.021,0.208,0.148,28.61,-80.6,9.792,0.005,0,-0.157,-6.543e-5,7.162e4,2.856e4,54.544,0.555,298.342,256.23,2.072,0.587,5.197e7,7563.803,305.026,0.394,0.394,0.219,0.031,0.145,8.319e-4,0.002,-3.21e-4,0,0,0,0,-1.489e-6,0.026,20.32,324.293,89.907,0.035,0.1,13.647,988.829,339.569,0.05,0.135
2.073,218.303,203.913,91.273,203.913,91.274,0.163,6.671e-5,0.163,0.023,0.216,0.174,28.61,-80.6,9.792,0.012,0,-0.13,0.001,7.144e4,2.838e4,54.498,0.554,298.459,256.306,2.074,0.601,5.311e7,7541.415,320.906,0.397,0.397,0.218,0.032,0.147,0.002,0.005,3.549e-4,0,0,0,0,-9.801e-7,0.026,20.32,324.293,89.9,0.017,0.1,13.581,987.647,339.529,0.05,0.137
2.123,228.612,208.462,90.979,208.462,90.979,0.174,7.637e-5,0.174,0.025,0.225,0.193,28.61,-80.6,9.792,0.016,0,-0.085,0.002,7.127e4,2.821e4,54.453,0.553,298.556,256.373,2.076,0.614,5.425e7,7519.043,337.293,0.399,0.399,0.218,0.033,0.149,0.003,0.006,3.017e-4,0,0,0,0,-3.979e-7,0.027,20.32,324.293,89.894,0.005,0.1,13.514,986.438,339.488,0.05,0.139
2.173,239.149,212.996,90.676,212.996,90.676,0.185,8.574e-5,0.185,0.027,0.235,0.203,28.61,-80.6,9.791,0.018,0,-0.022,0.004,7.109e4,2.803e4,54.409,0.552,298.657,256.438,2.078,0.627,5.539e7,7496.691,354.186,0.402,0.402,0.218,0.034,0.15,0.003,0.007,4.458e-4,0,0,0,0,-2.653e-8,0.027,20.32,324.293,89.892,0.009,0.1,13.446,985.202,339.447,0.05,0.141
2.223,249.911,217.515,90.363,217.515,90.363,0.197,9.489e-5,0.197,0.028,0.245,0.2,28.61,-80.6,9.791,0.017,0,0.045,0.006,7.092e4,2.786e4,54.365,0.552,298.76,256.502,2.08,0.641,5.652e7,7474.353,371.597,0.405,0.405,0.217,0.035,0.152,0.003,0.006,1.026e-4,0,0,0,0,1.037e-7,0.028,20.32,324.293,89.892,0.045,0.1,13.376,983.94,339.404,0.05,0.143
2.273,260.9,222.018,90.041,222.018,90.041,0.21,1.048e-4,0.21,0.029,0.255,0.184,28.61,-80.6,9.791,0.013,0,0.098,0.003,7.074e4,2.768e4,54.318,0.551,298.887,256.595,2.081,0.654,5.764e7,7452.036,389.554,0.408,0.408,0.217,0.037,0.154,0.002,0.005,-2.542e-4,0,0,0,0,4.693e-7,0.028,20.32,324.293,89.896,0.118,0.1,13.304,982.651,339.361,0.05,0.145
2.323,272.113,226.504,89.709,226.504,89.709,0.223,1.166e-4,0.223,0.03,0.263,0.158,28.61,-80.6,9.791,0.007,0,0.136,0.006,7.057e4,2.751e4,54.274,0.55,298.941,256.665,2.08,0.668,5.875e7,7429.735,408.091,0.411,0.411,0.216,0.038,0.156,0.001,0.002,2.226e-4,0,0,0,0,8.679e-7,0.029,20.32,324.293,89.902,0.195,0.1,13.231,981.336,339.317,0.05,0.147
2.373,283.55,230.974,89.366,230.974,89.366,0.236,1.314e-4,0.236,0.032,0.27,0.126,28.61,-80.6,9.791,8.046e-4,0,-0.128,0.063,7.04e4,2.734e4,54.23,0.549,300.592,256.726,2.159,0.681,5.985e7,7407.448,427.194,0.414,0.414,0.216,0.04,0.158,1.495e-4,3.432e-4,9.01e-5,0,0,0,0,-7.457e-7,0.03,20.32,324.293,89.909,0.249,0.1,13.157,979.994,339.272,0.05,0.149
2.423,295.21,235.426,89.013,235.426,89.013,0.25,1.5e-4,0.25,0.034,0.276,0.096,28.61,-80.6,9.791,0.007,0,-0.126,0.005,7.022e4,2.716e4,54.187,0.548,299.481,256.786,2.101,0.694,6.095e7,7385.184,446.881,0.417,0.417,0.216,0.041,0.161,0.001,0.003,-1.292e-6,0,0,0,0,-6.9e-7,0.03,20.32,324.293,89.916,0.251,0.1,13.081,978.627,339.226,0.05,0.151
2.473,307.092,239.86,88.649,239.86,88.649,0.264,1.718e-4,0.264,0.037,0.28,0.071,28.61,-80.6,9.791,0.012,3.122e-7,-0.079,-0.001,7.005e4,2.699e4,54.144,0.547,299.508,256.844,2.1,0.707,6.204e7,7362.933,467.25,0.421,0.421,0.215,0.043,0.163,0.002,0.005,2.991e-4,0,0,0,0,-2.582e-7,0.031,20.32,324.293,89.921,0.159,0.1,13.004,977.233,339.179,0.05,0.153
2.523,319.195,244.276,88.272,244.276,88.272,0.278,1.953e-4,0.278,0.04,0.283,0.059,28.61,-80.6,9.791,0.014,0,-0.029,-0.002,6.988e4,2.682e4,54.099,0.546,299.632,256.931,2.101,0.72,6.312e7,7340.701,488.32,0.425,0.425,0.215,0.045,0.165,0.002,0.005,2.972e-4,0,0,0,0,-3.373e-8,0.031,20.32,324.293,89.924,0.099,0.1,12.925,975.814,339.132,0.05,0.155
2.573,331.519,248.672,87.909,248.672,87.909,0.292,2.196e-4,0.292,0.043,0.286,0.06,28.61,-80.6,9.791,0.013,0,0.044,0.002,6.968e4,2.662e4,54.049,0.545,299.826,257.005,2.107,0.733,6.42e7,7317.524,510.048,0.429,0.429,0.214,0.047,0.167,0.002,0.005,-1.655e-4,0,0,0,0,7.386e-8,0.032,20.32,324.293,89.924,0.108,0.1,12.845,974.368,339.083,0.05,0.157
2.623,344.062,253.048,87.49,253.048,87.49,0.306,2.45e-4,0.306,0.046,0.289,0.077,28.61,-80.6,9.791,0.008,0,0.097,0.004,6.951e4,2.645e4,54.006,0.544,299.933,257.06,2.11,0.746,6.526e7,7294.072,532.468,0.433,0.433,0.214,0.05,0.169,0.001,0.004,1.176e-4,0,0,0,0,3.52e-7,0.032,20.32,324.293,89.92,0.094,0.1,12.764,972.897,339.034,0.05,0.159
2.673,356.823,257.404,87.072,257.404,87.072,0.321,2.712e-4,0.321,0.048,0.294,0.105,28.61,-80.6,9.791,0.002,3.472e-7,0.12,0.007,6.933e4,2.628e4,53.964,0.543,300.15,257.114,2.118,0.759,6.632e7,7271.897,555.903,0.437,0.437,0.213,0.052,0.171,3.868e-4,9.446e-4,-2.494e-5,0,0,0,0,5.251e-7,0.033,20.32,324.293,89.915,0.06,0.1,12.681,971.401,338.983,0.05,0.161
2.723,369.802,261.738,86.639,261.738,86.639,0.336,2.975e-4,0.336,0.051,0.3,0.134,28.61,-80.6,9.791,0.004,0,-0.117,3.467e-4,6.916e4,2.61e4,53.923,0.543,300.526,257.167,2.134,0.772,6.736e7,7249.732,580.239,0.442,0.442,0.213,0.055,0.174,7.01e-4,0.001,-3.479e-5,0,0,0,0,-4.784e-7,0.034,20.32,324.293,89.908,-0.079,0.1,12.596,969.878,338.932,0.05,0.163
2.773,382.997,266.05,86.191,266.05,86.191,0.351,3.214e-4,0.351,0.052,0.307,0.159,28.61,-80.6,9.791,0.009,0,-0.074,0.003,6.899e4,2.593e4,53.878,0.542,300.702,257.255,2.138,0.785,6.84e7,7227.592,605.416,0.447,0.447,0.213,0.058,0.176,0.002,0.004,1.195e-5,0,0,0,0,-1.869e-7,0.034,20.32,324.293,89.903,-0.218,0.1,12.511,968.331,338.88,0.05,0.165
2.823,396.406,270.339,85.727,270.339,85.727,0.367,3.397e-4,0.367,0.053,0.316,0.171,28.61,-80.6,9.791,0.011,0,-0.02,0.007,6.882e4,2.576e4,53.837,0.541,300.82,257.306,2.141,0.798,6.943e7,7205.47,631.492,0.452,0.452,0.212,0.062,0.178,0.002,0.004,4.94e-4,0,0,0,0,-1.278e-8,0.035,20.32,324.293,89.901,-0.24,0.1,12.423,966.758,338.827,0.05,0.167
2.873,410.03,274.605,85.234,274.605,85.234,0.383,3.516e-4,0.383,0.053,0.324,0.166,28.61,-80.6,9.791,0.01,0,0.037,0.002,6.866e4,2.56e4,53.796,0.54,300.949,257.355,2.145,0.811,7.045e7,7183.36,659.384,0.458,0.458,0.212,0.066,0.181,0.002,0.004,-3.674e-5,0,0,0,0,4.418e-8,0.035,20.32,324.293,89.902,-0.225,0.1,12.335,965.16,338.774,0.05,0.169
2.923,423.866,278.845,84.72,278.845,84.72,0.399,3.58e-4,0.399,0.051,0.332,0.145,28.61,-80.6,9.791,0.006,0,0.087,-0.004,6.849e4,2.543e4,53.755,0.539,301.161,257.404,2.153,0.823,7.145e7,7161.27,688.548,0.464,0.464,0.211,0.07,0.183,0.001,0.003,-8.171e-5,0,0,0,0,2.365e-7,0.036,20.32,324.293,89.905,-0.17,0.1,12.245,963.538,338.719,0.05,0.171
2.973,437.914,283.059,84.185,283.059,84.185,0.416,3.604e-4,0.416,0.05,0.338,0.113,28.61,-80.6,9.791,7.388e-4,4.294e-7,0.106,-0.027,6.832e4,2.526e4,53.715,0.538,302.307,257.452,2.207,0.836,7.245e7,7139.193,718.925,0.471,0.471,0.211,0.075,0.185,1.399e-4,1.785e-4,3.084e-4,0,0,0,0,3.399e-7,0.036,20.32,324.293,89.91,-0.095,0.1,12.154,961.89,338.664,0.05,0.172
3.023,452.172,287.246,83.627,287.246,83.627,0.433,3.602e-4,0.433,0.048,0.343,0.082,28.61,-80.6,9.791,0.004,0,-0.106,-0.002,6.815e4,2.509e4,53.671,0.537,301.46,257.535,2.162,0.848,7.344e7,7117.133,750.648,0.478,0.478,0.21,0.08,0.188,7.933e-4,0.001,-3.055e-4,0,0,0,0,-3.3e-7,0.037,20.32,324.293,89.916,0.01,0.1,12.061,960.218,338.608,0.05,0.174
3.073,466.638,291.403,83.013,291.403,83.013,0.45,3.601e-4,0.45,0.046,0.347,0.055,28.61,-80.6,9.791,0.008,-4.851e-7,-0.065,0.006,6.798e4,2.492e4,53.631,0.536,301.705,257.58,2.171,0.861,7.441e7,7095.098,785.991,0.487,0.487,0.21,0.088,0.19,0.002,0.003,2.42e-4,0,0,0,0,-1.187e-7,0.037,20.32,324.293,89.921,0.096,0.1,11.967,958.521,338.551,0.05,0.175
3.123,481.311,295.529,82.364,295.529,82.364,0.467,3.627e-4,0.467,0.044,0.349,0.045,28.61,-80.6,9.791,0.009,0,-7.163e-4,-0.005,6.782e4,2.476e4,53.591,0.536,301.876,257.624,2.178,0.873,7.538e7,7073.073,823.495,0.497,0.497,0.209,0.095,0.193,0.002,0.003,-2.791e-5,0,0,0,0,0,0.038,20.32,324.293,89.922,0.253,0.1,11.871,956.8,338.493,0.05,0.177
3.173,496.19,299.621,81.679,299.622,81.679,0.485,3.707e-4,0.485,0.044,0.351,0.056,28.61,-80.6,9.791,0.007,-3.442e-7,0.062,-0.002,6.765e4,2.459e4,53.551,0.535,302.122,257.668,2.188,0.885,7.633e7,7051.071,863.136,0.508,0.508,0.209,0.104,0.195,0.001,0.003,-5.303e-5,0,0,0,0,1.025e-7,0.038,20.32,324.293,89.921,0.369,0.1,11.775,955.055,338.434,0.05,0.179
3.223,511.273,303.679,80.953,303.679,80.953,0.503,3.856e-4,0.503,0.044,0.355,0.083,28.61,-80.6,9.791,0.002,0,0.104,-0.018,6.748e4,2.442e4,53.512,0.534,302.956,257.71,2.227,0.897,7.727e7,7029.084,905.378,0.519,0.519,0.208,0.113,0.197,4.14e-4,7.039e-4,3.143e-4,0,0,0,0,2.83e-7,0.039,20.32,324.293,89.916,0.289,0.1,11.677,953.349,338.375,0.05,0.181
3.273,526.557,307.701,80.33,307.701,80.33,0.52,4.067e-4,0.52,0.045,0.36,0.115,28.61,-80.6,9.791,0.003,-4.207e-7,-0.095,-0.005,6.732e4,2.426e4,53.47,0.533,302.283,257.788,2.19,0.91,7.82e7,7007.114,940.339,0.526,0.526,0.207,0.119,0.2,5.743e-4,0.001,3.878e-4,0,0,0,0,-2.284e-7,0.039,20.32,324.293,89.911,0.139,0.1,11.577,951.641,338.315,0.05,0.183
3.323,542.042,311.694,79.737,311.694,79.737,0.539,4.299e-4,0.539,0.046,0.366,0.139,28.61,-80.6,9.791,0.007,0,-0.064,-0.002,6.715e4,2.409e4,53.431,0.532,302.552,257.828,2.201,0.921,7.912e7,6985.162,973.131,0.531,0.531,0.206,0.123,0.202,0.001,0.003,1.883e-4,0,0,0,0,-1.02e-7,0.04,20.32,324.293,89.907,-0.007,0.1,11.477,949.911,338.254,0.05,0.184
3.373,557.726,315.657,79.132,315.657,79.133,0.557,4.523e-4,0.557,0.047,0.374,0.147,28.61,-80.6,9.791,0.008,0,0.012,-0.006,6.699e4,2.393e4,53.392,0.531,302.833,257.867,2.213,0.933,8.003e7,6963.229,1006.417,0.537,0.537,0.204,0.127,0.205,0.001,0.003,1.226e-4,0,0,0,0,0,0.04,20.32,324.293,89.906,-0.072,0.1,11.375,948.159,338.192,0.05,0.186
3.423,573.607,319.59,78.518,319.59,78.518,0.576,4.72e-4,0.576,0.047,0.381,0.132,28.61,-80.6,9.79,0.006,-3.204e-7,0.07,-0.014,6.682e4,2.376e4,53.353,0.53,303.096,257.906,2.224,0.945,8.093e7,6941.312,1040.186,0.542,0.542,0.203,0.131,0.208,0.001,0.002,-2.753e-4,0,0,0,0,1.158e-7,0.041,20.32,324.293,89.908,-0.152,0.1,11.272,946.385,338.129,0.05,0.188
3.473,589.684,323.49,77.789,323.49,77.789,0.595,4.868e-4,0.595,0.047,0.386,0.1,28.61,-80.6,9.79,0.001,0,0.104,-0.016,6.666e4,2.36e4,53.314,0.53,303.823,257.943,2.258,0.957,8.182e7,6919.412,1081.339,0.551,0.551,0.202,0.139,0.21,2.69e-4,2.747e-4,-3.647e-4,0,0,0,0,2.506e-7,0.041,20.32,324.293,89.913,-0.212,0.1,11.167,944.588,338.066,0.05,0.19
3.523,605.955,327.35,76.973,327.35,76.973,0.615,4.957e-4,0.615,0.046,0.39,0.065,28.61,-80.6,9.79,0.003,-3.97e-7,-0.1,-0.008,6.65e4,2.344e4,53.273,0.529,303.434,258.016,2.235,0.968,8.269e7,6897.525,1128.011,0.562,0.562,0.201,0.149,0.213,6.035e-4,0.001,2.468e-4,0,0,0,0,-2.232e-7,0.042,20.32,324.293,89.918,-0.058,0.1,11.061,942.77,338.002,0.05,0.192
3.573,622.418,331.169,76.142,331.17,76.142,0.634,5.035e-4,0.634,0.045,0.393,0.04,28.61,-80.6,9.79,0.006,0,-0.042,-0.009,6.633e4,2.327e4,53.235,0.528,303.692,258.051,2.246,0.98,8.355e7,6875.663,1175.433,0.573,0.573,0.199,0.158,0.215,0.001,0.003,-3.131e-4,0,0,0,0,-3.937e-8,0.042,20.32,324.293,89.921,0.265,0.1,10.954,940.931,337.937,0.05,0.194
3.623,639.071,334.947,75.296,334.947,75.296,0.654,5.167e-4,0.654,0.045,0.395,0.037,28.61,-80.6,9.79,0.006,0,0.023,0.004,6.617e4,2.311e4,53.197,0.527,304.205,258.085,2.27,0.991,8.439e7,6853.813,1223.556,0.584,0.584,0.198,0.168,0.218,0.001,0.003,6.949e-5,0,0,0,0,1.143e-8,0.043,20.32,324.293,89.922,0.382,0.1,10.846,939.071,337.872,0.05,0.196
3.673,655.912,338.681,74.426,338.681,74.426,0.674,5.391e-4,0.674,0.046,0.397,0.057,28.61,-80.6,9.79,0.003,0,0.083,0.004,6.601e4,2.295e4,53.159,0.526,304.394,258.119,2.277,1.003,8.522e7,6831.983,1272.928,0.595,0.595,0.197,0.179,0.219,5.896e-4,0.002,1.865e-4,0,0,0,0,1.432e-7,0.043,20.32,324.293,89.919,0.219,0.1,10.737,937.189,337.805,0.05,0.197
3.723,672.939,342.371,73.512,342.371,73.512,0.694,5.668e-4,0.694,0.047,0.4,0.089,28.61,-80.6,9.79,0.001,0,-0.084,0.003,6.585e4,2.279e4,53.121,0.525,304.895,258.151,2.3,1.014,8.603e7,6810.173,1324.913,0.607,0.607,0.196,0.195,0.217,2.711e-4,6.986e-4,6.745e-5,0,0,0,0,-1.454e-7,0.044,20.32,324.293,89.915,-0.054,0.1,10.626,935.287,337.738,0.05,0.199
3.773,690.148,346.015,72.645,346.015,72.645,0.714,5.918e-4,0.714,0.048,0.406,0.116,28.61,-80.6,9.79,0.005,-3.827e-7,-0.042,0.004,6.569e4,2.263e4,53.082,0.525,304.864,258.22,2.295,1.025,8.683e7,6788.376,1373.469,0.617,0.617,0.194,0.208,0.214,9.76e-4,0.002,8.217e-5,0,0,0,0,-3.474e-8,0.044,20.32,324.293,89.911,-0.282,0.1,10.514,933.364,337.67,0.05,0.201
3.823,707.539,349.618,71.849,349.619,71.849,0.734,6.069e-4,0.734,0.047,0.412,0.118,28.61,-80.6,9.79,0.005,0,0.022,-0.01,6.553e4,2.247e4,53.044,0.524,304.991,258.25,2.3,1.036,8.761e7,6766.596,1417.124,0.625,0.625,0.193,0.22,0.212,0.001,0.003,-4.872e-4,0,0,0,0,9.485e-9,0.045,20.32,324.293,89.911,-0.434,0.1,10.401,931.421,337.602,0.05,0.203
3.873,725.109,353.183,71.12,353.183,71.12,0.755,6.086e-4,0.755,0.046,0.417,0.098,28.61,-80.6,9.79,0.003,-7.739e-7,0.078,4.303e-4,6.537e4,2.231e4,53.007,0.523,304.843,258.28,2.291,1.046,8.839e7,6744.836,1456.083,0.63,0.63,0.192,0.228,0.21,5.752e-4,0.001,-2.295e-4,0,0,0,0,1.176e-7,0.045,20.32,324.293,89.913,-0.288,0.1,10.287,929.458,337.533,0.05,0.204
3.923,742.857,356.713,70.438,356.713,70.438,0.776,6.028e-4,0.776,0.045,0.421,0.064,28.61,-80.6,9.79,8.981e-4,-5.395e-7,-0.082,0.019,6.521e4,2.215e4,52.97,0.522,306.005,258.308,2.347,1.057,8.914e7,6723.094,1491.799,0.634,0.634,0.191,0.235,0.208,1.81e-4,9.112e-5,-3.173e-4,0,0,0,0,-1.261e-7,0.046,20.32,324.293,89.917,0.128,0.1,10.171,927.475,337.463,0.05,0.206
3.973,760.78,360.21,69.833,360.211,69.833,0.797,6.018e-4,0.797,0.043,0.423,0.031,28.61,-80.6,9.79,0.005,0,-0.07,0.005,6.505e4,2.199e4,52.933,0.521,305.29,258.336,2.311,1.068,8.989e7,6701.364,1522.16,0.636,0.636,0.19,0.24,0.206,8.998e-4,0.002,-4.734e-4,0,0,0,0,-9.004e-8,0.046,20.32,324.293,89.921,0.453,0.1,10.055,925.473,337.392,0.05,0.207
4.023,778.877,363.679,69.258,363.679,69.258,0.818,6.129e-4,0.818,0.043,0.425,0.021,28.61,-80.6,9.79,0.005,-3.338e-7,0.012,0.007,6.489e4,2.183e4,52.894,0.52,305.399,258.4,2.313,1.078,9.062e7,6679.654,1550.44,0.636,0.636,0.188,0.244,0.204,0.001,0.002,-2.643e-4,0,0,0,0,0,0.047,20.32,324.293,89.923,0.435,0.1,9.937,923.451,337.321,0.05,0.209
4.073,797.147,367.12,68.765,367.12,68.765,0.839,6.347e-4,0.839,0.043,0.426,0.038,28.61,-80.6,9.79,0.003,0,0.044,4.731e-4,6.473e4,2.167e4,52.858,0.52,305.481,258.426,2.316,1.089,9.135e7,6657.964,1573.186,0.635,0.635,0.187,0.245,0.202,6.19e-4,0.001,4.53e-4,0,0,0,0,3.418e-8,0.047,20.32,324.293,89.921,0.14,0.1,9.819,921.409,337.249,0.05,0.21
4.123,815.589,370.538,68.29,370.538,68.29,0.861,6.599e-4,0.861,0.044,0.428,0.063,28.61,-80.6,9.79,1.975e-4,0,0.031,0.055,6.457e4,2.151e4,52.821,0.519,303.138,258.451,2.199,1.099,9.206e7,6636.287,1594.62,0.633,0.633,0.186,0.247,0.2,3.559e-5,2.436e-4,3.59e-4,0,0,0,0,1.716e-8,0.047,20.32,324.293,89.918,-0.064,0.1,9.699,919.349,337.176,0.05,0.212
4.173,834.201,373.933,67.876,373.933,67.876,0.882,6.828e-4,0.882,0.044,0.432,0.088,28.61,-80.6,9.79,0.003,0,-0.055,0.007,6.441e4,2.135e4,52.785,0.518,305.347,258.475,2.307,1.109,9.277e7,6614.632,1611.918,0.629,0.629,0.185,0.246,0.198,5.326e-4,0.001,4.485e-4,0,0,0,0,-5.128e-8,0.048,20.32,324.293,89.915,0.044,0.1,9.578,917.27,337.103,0.05,0.214
4.223,852.982,377.308,67.471,377.308,67.471,0.904,7.063e-4,0.904,0.045,0.437,0.102,28.61,-80.6,9.79,0.004,0,0.015,0.016,6.426e4,2.12e4,52.749,0.517,304.962,258.498,2.287,1.12,9.346e7,6592.993,1628.529,0.625,0.625,0.185,0.244,0.196,8.539e-4,0.002,-3.166e-4,0,0,0,0,0,0.048,20.32,324.293,89.914,0.403,0.1,9.456,915.171,337.029,0.05,0.216
4.273,871.931,380.664,67.138,380.664,67.138,0.926,7.419e-4,0.926,0.046,0.442,0.085,28.61,-80.6,9.79,0.003,0,0.041,0.021,6.41e4,2.104e4,52.711,0.516,304.072,258.558,2.24,1.13,9.415e7,6571.368,1640.359,0.62,0.62,0.184,0.241,0.194,5.204e-4,0.001,-3.04e-4,0,0,0,0,2.765e-8,0.049,20.32,324.293,89.916,0.756,0.1,9.332,913.054,336.954,0.05,0.218
4.323,891.048,384.004,66.812,384.004,66.812,0.948,7.997e-4,0.948,0.048,0.446,0.059,28.61,-80.6,9.789,8.231e-4,0,4.851e-4,0.074,6.394e4,2.088e4,52.675,0.516,306.38,258.58,2.352,1.14,9.483e7,6549.765,1651.614,0.615,0.615,0.184,0.238,0.193,1.642e-4,3.229e-4,-3.058e-5,0,0,0,0,0,0.049,20.32,324.293,89.919,0.798,0.1,9.208,910.918,336.879,0.05,0.219
4.373,910.331,387.329,66.548,387.329,66.548,0.97,8.781e-4,0.97,0.052,0.447,0.027,28.61,-80.6,9.789,0.003,0,-0.029,0.007,6.379e4,2.073e4,52.64,0.515,306.287,258.6,2.347,1.15,9.55e7,6528.176,1658.85,0.608,0.608,0.183,0.234,0.191,6.369e-4,0.001,1.707e-4,0,0,0,0,-1.392e-8,0.05,20.32,324.293,89.922,0.418,0.1,9.083,908.764,336.803,0.05,0.221
4.423,929.78,390.641,66.273,390.641,66.273,0.993,9.657e-4,0.993,0.056,0.449,0.023,28.61,-80.6,9.789,0.004,0,0.001,0.017,6.366e4,2.06e4,52.61,0.514,305.387,258.617,2.302,1.16,9.616e7,6507.543,1665.577,0.601,0.601,0.182,0.23,0.189,6.835e-4,0.001,-4.379e-4,0,0,0,0,0,0.05,20.32,324.293,89.923,-0.031,0.1,8.956,906.591,336.726,0.05,0.222
4.473,949.395,393.942,66.08,393.943,66.08,1.015,0.001,1.015,0.059,0.45,0.039,28.61,-80.6,9.789,0.002,0,0.02,0.031,6.35e4,2.044e4,52.575,0.513,304.332,258.636,2.249,1.17,9.682e7,6487.21,1669.295,0.594,0.594,0.182,0.224,0.188,3.615e-4,0.001,-3.33e-4,0,0,0,0,6.234e-9,0.05,20.32,324.293,89.922,-0.505,0.1,8.829,904.4,336.649,0.05,0.224
4.523,969.174,397.233,65.876,397.233,65.876,1.038,0.001,1.038,0.061,0.453,0.06,28.61,-80.6,9.789,0.001,0,-0.011,0.034,6.335e4,2.029e4,52.538,0.512,307.008,258.684,2.378,1.18,9.747e7,6465.672,1672.471,0.586,0.586,0.181,0.219,0.186,2.583e-4,1.404e-4,-3.845e-4,0,0,0,0,0,0.051,20.32,324.293,89.92,-0.71,0.1,8.7,902.19,336.571,0.05,0.226
4.573,989.118,400.514,65.699,400.515,65.699,1.061,0.001,1.061,0.062,0.456,0.082,28.61,-80.6,9.789,0.003,0,-0.01,0.004,6.319e4,2.013e4,52.502,0.512,306.74,258.71,2.364,1.19,9.811e7,6444.15,1673.743,0.578,0.578,0.18,0.213,0.185,5.507e-4,9.136e-4,-1.544e-4,0,0,0,0,0,0.051,20.32,324.293,89.918,-0.45,0.1,8.571,899.962,336.493,0.05,0.227
4.623,1009.225,403.787,65.53,403.787,65.53,1.084,0.001,1.084,0.062,0.46,0.08,28.61,-80.6,9.789,0.003,0,0.01,0.01,6.304e4,1.998e4,52.468,0.511,306.478,258.726,2.35,1.2,9.875e7,6422.648,1674.555,0.57,0.57,0.18,0.207,0.183,5.155e-4,9.569e-4,8.656e-5,0,0,0,0,0,0.052,20.32,324.293,89.918,0.117,0.1,8.44,897.764,336.414,0.05,0.229
4.673,1029.496,407.051,65.369,407.051,65.369,1.107,0.001,1.107,0.061,0.464,0.061,28.61,-80.6,9.789,0.001,0,0.039,0.049,6.289e4,1.983e4,52.433,0.51,304.344,258.742,2.244,1.21,9.94e7,6401.165,1674.736,0.562,0.562,0.179,0.202,0.182,1.911e-4,4.311e-5,-2.008e-4,0,0,0,0,2.158e-8,0.052,20.32,324.293,89.92,0.512,0.1,8.308,895.608,336.334,0.05,0.231
4.723,1049.93,410.308,65.215,410.308,65.215,1.13,0.001,1.13,0.062,0.466,0.042,28.61,-80.6,9.789,0.001,0,-0.033,0.018,6.273e4,1.967e4,52.398,0.509,307.803,258.756,2.414,1.22,1e8,6379.695,1674.39,0.554,0.554,0.179,0.196,0.18,2.776e-4,8.202e-4,4.991e-4,0,0,0,0,-1.533e-8,0.053,20.32,324.293,89.922,0.852,0.1,8.175,893.435,336.253,0.05,0.233
4.773,1070.527,413.556,65.053,413.556,65.053,1.153,0.001,1.153,0.064,0.468,0.029,28.61,-80.6,9.789,0.002,0,-0.012,0.005,6.258e4,1.952e4,52.362,0.509,307.174,258.801,2.381,1.23,1.007e8,6358.246,1674.559,0.547,0.547,0.178,0.19,0.179,4.3e-4,5.357e-4,-3.608e-4,0,0,0,0,0,0.053,20.32,324.293,89.923,0.878,0.1,8.042,891.244,336.172,0.05,0.234
4.823,1091.285,416.797,64.897,416.797,64.897,1.177,0.001,1.177,0.067,0.469,0.037,28.61,-80.6,9.789,0.001,0,0.011,0.025,6.243e4,1.937e4,52.327,0.508,305.336,258.823,2.289,1.24,1.013e8,6336.813,1674.231,0.539,0.539,0.177,0.185,0.177,2.126e-4,6.211e-4,-2.332e-5,0,0,0,0,0,0.053,20.32,324.293,89.923,0.141,0.1,7.907,889.036,336.09,0.05,0.236
4.873,1112.206,420.029,64.71,420.029,64.71,1.2,0.001,1.2,0.07,0.471,0.051,28.61,-80.6,9.789,7.198e-4,0,-0.017,0.017,6.228e4,1.922e4,52.293,0.507,307.174,258.836,2.379,1.25,1.019e8,6315.398,1675.79,0.533,0.533,0.177,0.18,0.176,1.448e-4,3.303e-4,-3.995e-4,0,0,0,0,0,0.054,20.32,324.293,89.922,-0.631,0.1,7.771,886.81,336.008,0.05,0.237
4.923,1133.288,423.251,64.529,423.252,64.529,1.224,0.002,1.224,0.071,0.474,0.066,28.61,-80.6,9.789,0.002,0,-0.006,0.014,6.213e4,1.907e4,52.259,0.506,307.424,258.847,2.391,1.26,1.025e8,6293.999,1676.876,0.526,0.526,0.176,0.175,0.174,3.78e-4,0.001,4.508e-5,0,0,0,0,0,0.054,20.32,324.293,89.921,-0.558,0.1,7.634,884.568,335.925,0.05,0.238
4.973,1154.531,426.464,64.293,426.464,64.293,1.248,0.002,1.248,0.072,0.478,0.063,28.61,-80.6,9.789,0.002,0,0.001,-0.002,6.198e4,1.892e4,52.225,0.505,306.588,258.858,2.349,1.27,1.031e8,6272.618,1681.333,0.521,0.521,0.176,0.172,0.173,3.007e-4,0.001,1.663e-4,0,0,0,0,0,0.055,20.32,324.293,89.921,-0.125,0.1,7.496,882.308,335.841,0.05,0.239
5.023,1175.934,429.664,64.061,429.665,64.061,1.272,0.002,1.272,0.072,0.481,0.055,28.61,-80.6,9.789,0.001,-3.006e-7,0.019,0.008,6.183e4,1.877e4,52.19,0.505,304.37,258.899,2.238,1.28,1.037e8,6251.256,1685.416,0.515,0.515,0.175,0.169,0.172,1.883e-4,8.481e-4,-2.952e-4,0,0,0,0,0,0.055,20.32,324.293,89.922,0.327,0.1,7.356,880.031,335.757,0.05,0.24
5.073,1197.497,432.851,63.751,432.852,63.751,1.296,0.002,1.296,0.072,0.483,0.039,28.61,-80.6,9.789,5.697e-4,0,-0.031,0.007,6.168e4,1.862e4,52.156,0.504,307.223,258.918,2.377,1.29,1.043e8,6229.912,1694.261,0.511,0.511,0.174,0.167,0.17,1.146e-4,-1.287e-4,-2.868e-4,0,0,0,0,-1.205e-8,0.055,20.32,324.293,89.923,0.6,0.1,7.216,877.738,335.672,0.05,0.241
5.123,1219.219,436.023,63.441,436.023,63.441,1.32,0.002,1.32,0.073,0.485,0.031,28.61,-80.6,9.788,0.001,0,-0.02,0.007,6.153e4,1.847e4,52.123,0.503,306.691,258.926,2.351,1.299,1.049e8,6208.581,1702.986,0.508,0.508,0.174,0.165,0.169,2.08e-4,8.946e-4,2.726e-4,0,0,0,0,-5.197e-9,0.056,20.32,324.293,89.924,0.507,0.1,7.075,875.427,335.586,0.05,0.243
5.173,1241.099,439.178,63.083,439.178,63.083,1.344,0.002,1.344,0.075,0.486,0.033,28.61,-80.6,9.788,8.465e-4,0,-0.002,-0.014,6.138e4,1.832e4,52.089,0.502,304.227,258.934,2.229,1.309,1.055e8,6187.269,1714.528,0.505,0.505,0.173,0.164,0.168,1.531e-4,8.245e-4,1.744e-4,0,0,0,0,0,0.056,20.32,324.293,89.925,0.192,0.1,6.933,873.1,335.5,0.05,0.247
5.223,1263.136,442.315,62.724,442.315,62.724,1.368,0.002,1.368,0.077,0.488,0.039,28.61,-80.6,9.788,1.359e-4,0,0.019,-0.007,6.123e4,1.817e4,52.056,0.502,303.997,258.941,2.217,1.319,1.06e8,6165.977,1726.08,0.502,0.502,0.173,0.163,0.167,2.44e-5,4.132e-4,4.928e-4,0,0,0,0,0,0.057,20.32,324.293,89.924,0.039,0.1,6.79,870.756,335.413,0.05,0.253
5.273,1285.33,445.434,62.361,445.434,62.361,1.393,0.002,1.393,0.079,0.49,0.042,28.61,-80.6,9.788,5.614e-4,0,0.004,-0.011,6.108e4,1.802e4,52.021,0.501,304.035,258.979,2.217,1.328,1.066e8,6144.699,1737.671,0.5,0.5,0.172,0.162,0.165,1.01e-4,-1.751e-4,2.239e-4,0,0,0,0,0,0.057,20.32,324.293,89.923,0.368,0.1,6.645,868.395,335.326,0.05,0.254
5.323,1307.679,448.534,62,448.535,62,1.417,0.002,1.417,0.081,0.492,0.053,28.61,-80.6,9.788,0.001,0,-0.009,-0.004,6.093e4,1.787e4,51.988,0.5,303.98,258.995,2.214,1.338,1.071e8,6123.437,1749.074,0.497,0.497,0.171,0.161,0.164,2.576e-4,2.965e-4,4.178e-4,0,0,0,0,0,0.057,20.32,324.293,89.923,0.622,0.1,6.5,866.017,335.238,0.05,0.256
5.373,1330.183,451.617,61.637,451.617,61.637,1.442,0.002,1.442,0.083,0.495,0.049,28.61,-80.6,9.788,0.001,0,0.013,0.002,6.079e4,1.773e4,51.955,0.499,304.235,258.999,2.226,1.348,1.077e8,6102.195,1760.466,0.495,0.495,0.171,0.161,0.163,2.046e-4,-2.584e-5,4.788e-4,0,0,0,0,0,0.058,20.32,324.293,89.923,0.447,0.1,6.354,863.624,335.149,0.05,0.257
5.423,1352.84,454.681,61.275,454.682,61.275,1.467,0.002,1.467,0.086,0.497,0.038,28.61,-80.6,9.788,2.311e-4,0,0.013,0.007,6.064e4,1.758e4,51.923,0.499,304.935,259.003,2.26,1.357,1.082e8,6080.971,1771.69,0.492,0.492,0.17,0.16,0.162,4.308e-5,-2.579e-4,-4.411e-4,0,0,0,0,0,0.058,20.32,324.293,89.924,0.136,0.1,6.207,861.214,335.06,0.05,0.259
5.473,1375.65,457.728,60.911,457.728,60.911,1.492,0.002,1.492,0.089,0.499,0.036,28.61,-80.6,9.788,3.036e-4,0,-0.019,-0.026,6.049e4,1.743e4,51.89,0.498,305.399,259.007,2.283,1.366,1.087e8,6059.762,1782.855,0.49,0.49,0.17,0.159,0.161,5.764e-5,-1.529e-4,2.226e-4,0,0,0,0,0,0.059,20.32,324.293,89.925,0.016,0.1,6.058,858.787,334.97,0.05,0.26
5.523,1398.613,460.756,60.549,460.756,60.549,1.517,0.002,1.517,0.091,0.5,0.025,28.61,-80.6,9.788,0.001,4.36e-7,-0.009,-0.03,6.035e4,1.729e4,51.856,0.497,303.179,259.042,2.172,1.376,1.092e8,6038.578,1793.873,0.487,0.487,0.169,0.159,0.16,1.921e-4,6.051e-4,-1.944e-4,0,0,0,0,0,0.059,20.32,324.293,89.926,-0.174,0.1,5.909,856.345,334.88,0.05,0.262
5.573,1421.726,463.766,60.185,463.766,60.185,1.542,0.002,1.542,0.093,0.502,0.023,28.61,-80.6,9.788,7.287e-4,0,-0.008,0.007,6.02e4,1.714e4,51.823,0.496,304.742,259.054,2.248,1.385,1.097e8,6017.401,1804.787,0.485,0.485,0.168,0.158,0.159,1.359e-4,5.602e-5,1.467e-4,0,0,0,0,0,0.059,20.32,324.293,89.927,-0.03,0.1,5.759,853.886,334.789,0.05,0.264
5.623,1444.989,466.758,59.822,466.758,59.822,1.567,0.003,1.567,0.094,0.503,0.024,28.61,-80.6,9.788,5.443e-4,0,-0.014,0.01,6.006e4,1.7e4,51.791,0.496,304.323,259.056,2.228,1.395,1.102e8,5996.248,1815.573,0.483,0.483,0.168,0.158,0.158,1.004e-4,3.114e-4,-3.848e-4,0,0,0,0,0,0.06,20.32,324.293,89.927,0.197,0.1,5.608,851.412,334.697,0.05,0.265
5.673,1468.401,469.731,59.46,469.731,59.46,1.592,0.003,1.592,0.096,0.504,0.025,28.61,-80.6,9.788,4.917e-4,0,4.226e-4,0.012,5.991e4,1.685e4,51.759,0.495,302.53,259.056,2.139,1.404,1.107e8,5975.106,1826.216,0.481,0.481,0.167,0.157,0.157,8.573e-5,3.516e-4,-3.875e-4,0,0,0,0,0,0.06,20.32,324.293,89.926,0.022,0.1,5.455,848.921,334.605,0.05,0.268
5.723,1491.961,472.687,59.097,472.687,59.097,1.617,0.003,1.617,0.097,0.505,0.038,28.61,-80.6,9.788,0.001,0,0.008,0.006,5.977e4,1.671e4,51.728,0.494,303.968,259.056,2.21,1.413,1.112e8,5953.989,1836.75,0.479,0.479,0.167,0.157,0.155,1.954e-4,8.808e-4,-2.823e-5,0,0,0,0,0,0.061,20.32,324.293,89.926,-0.128,0.1,5.302,846.415,334.512,0.05,0.269
5.773,1515.669,475.624,58.732,475.624,58.732,1.643,0.003,1.643,0.098,0.507,0.031,28.61,-80.6,9.788,5.052e-4,0,0.007,-0.004,5.963e4,1.657e4,51.694,0.493,303.573,259.089,2.189,1.422,1.117e8,5932.883,1847.283,0.477,0.477,0.166,0.156,0.154,9.182e-5,-1.554e-4,-6.771e-5,0,0,0,0,0,0.061,20.32,324.293,89.927,-0.045,0.1,5.148,843.974,334.419,0.05,0.271
5.823,1539.523,478.543,58.366,478.543,58.366,1.668,0.003,1.668,0.099,0.508,0.02,28.61,-80.6,9.788,4.182e-4,0,-0.009,0.015,5.948e4,1.642e4,51.662,0.493,302.288,259.098,2.125,1.431,1.122e8,5911.799,1857.819,0.475,0.475,0.165,0.156,0.154,7.318e-5,1.033e-4,-3.857e-4,0,0,0,0,0,0.061,20.32,324.293,89.927,-0.067,0.1,4.993,841.56,334.325,0.05,0.272
5.873,1563.523,481.444,58.001,481.444,58.001,1.694,0.003,1.694,0.099,0.509,0.015,28.61,-80.6,9.787,7.29e-4,0,-0.023,0.007,5.934e4,1.628e4,51.631,0.492,302.41,259.096,2.132,1.44,1.126e8,5890.729,1868.15,0.473,0.473,0.165,0.155,0.153,1.287e-4,1.381e-4,1.698e-4,0,0,0,0,-5.704e-9,0.062,20.32,324.293,89.928,-0.183,0.1,4.837,839.13,334.23,0.05,0.274
5.923,1587.667,484.326,57.635,484.326,57.635,1.719,0.003,1.719,0.099,0.51,0.009,28.61,-80.6,9.787,0.001,0,-0.014,0.008,5.92e4,1.614e4,51.599,0.491,301.944,259.093,2.109,1.449,1.131e8,5869.681,1878.412,0.471,0.471,0.164,0.155,0.152,1.976e-4,4.401e-4,3.507e-5,0,0,0,0,0,0.062,20.32,324.293,89.929,-0.132,0.1,4.68,836.687,334.135,0.05,0.276
5.973,1611.955,487.19,57.27,487.19,57.27,1.745,0.003,1.745,0.099,0.51,0.006,28.61,-80.6,9.787,0.001,0,-0.018,-0.003,5.906e4,1.6e4,51.568,0.49,301.405,259.09,2.082,1.458,1.135e8,5848.647,1888.462,0.469,0.469,0.164,0.154,0.151,2.129e-4,9.269e-5,-3.908e-5,0,0,0,0,0,0.062,20.32,324.293,89.929,0.139,0.1,4.522,834.228,334.039,0.05,0.277
6.023,1636.386,490.036,56.905,490.036,56.905,1.77,0.003,1.77,0.099,0.511,0.01,28.61,-80.6,9.787,9.253e-4,0,0.007,-0.009,5.892e4,1.586e4,51.535,0.49,301.248,259.121,2.073,1.467,1.14e8,5827.632,1898.414,0.467,0.467,0.163,0.154,0.15,1.598e-4,-1.151e-4,-2.533e-4,0,0,0,0,0,0.063,20.32,324.293,89.929,0.259,0.1,4.363,831.756,333.943,0.05,0.278
6.073,1660.958,492.864,56.542,492.864,56.542,1.796,0.003,1.796,0.099,0.512,0.026,28.61,-80.6,9.787,5.49e-4,0,0.008,-0.017,5.877e4,1.571e4,51.504,0.489,299.923,259.128,2.008,1.476,1.144e8,5806.634,1908.178,0.465,0.465,0.163,0.154,0.149,9.162e-5,-3.039e-6,-1.472e-4,0,0,0,0,0,0.063,20.32,324.293,89.929,0.158,0.1,4.204,829.268,333.846,0.05,0.28
6.123,1685.672,495.673,56.179,495.673,56.179,1.821,0.003,1.821,0.1,0.513,0.033,28.61,-80.6,9.787,0.001,0,0.023,-0.009,5.863e4,1.557e4,51.473,0.488,299.504,259.122,1.987,1.485,1.148e8,5785.652,1917.804,0.463,0.463,0.162,0.153,0.148,1.937e-4,-9.389e-5,3.193e-4,0,0,0,0,5.145e-9,0.063,20.32,324.293,89.928,0.109,0.1,4.043,826.767,333.749,0.05,0.281
6.173,1710.525,498.464,55.817,498.465,55.817,1.847,0.003,1.847,0.1,0.514,0.021,28.61,-80.6,9.787,5.297e-4,0,-3.703e-4,0.016,5.849e4,1.543e4,51.443,0.487,299.948,259.116,2.009,1.494,1.152e8,5764.688,1927.27,0.462,0.462,0.162,0.153,0.147,8.951e-5,4.37e-4,-3.362e-4,0,0,0,0,0,0.064,20.32,324.293,89.929,-0.047,0.1,3.882,824.252,333.651,0.05,0.283
6.223,1735.518,501.238,55.455,501.238,55.455,1.873,0.003,1.873,0.1,0.516,0.027,28.61,-80.6,9.787,9.385e-4,0,0.004,-0.015,5.835e4,1.529e4,51.412,0.487,298.49,259.11,1.938,1.503,1.156e8,5743.738,1936.561,0.46,0.46,0.161,0.152,0.146,1.53e-4,4.645e-4,-3.126e-4,0,0,0,0,0,0.064,20.32,324.293,89.929,-0.049,0.1,3.719,821.722,333.553,0.05,0.284
6.273,1760.648,503.993,55.095,503.993,55.095,1.898,0.003,1.898,0.1,0.517,0.022,28.61,-80.6,9.787,6.604e-4,0,-0.008,-0.008,5.822e4,1.516e4,51.38,0.486,299.108,259.14,1.967,1.511,1.16e8,5722.81,1945.721,0.458,0.458,0.161,0.152,0.145,1.102e-4,2.589e-5,3.618e-4,0,0,0,0,0,0.065,20.32,324.293,89.93,-0.156,0.1,3.556,819.178,333.454,0.05,0.286
6.323,1785.916,506.73,54.735,506.73,54.735,1.924,0.003,1.924,0.1,0.517,0.016,28.61,-80.6,9.787,9.915e-4,0,-0.024,-0.021,5.808e4,1.502e4,51.349,0.485,297.675,259.143,1.896,1.52,1.164e8,5701.896,1954.671,0.456,0.456,0.16,0.152,0.145,1.597e-4,4.395e-4,2.254e-4,0,0,0,0,-5.327e-9,0.065,20.32,324.293,89.93,-0.741,0.1,3.392,816.621,333.354,0.05,0.287
6.373,1811.321,509.449,54.376,509.449,54.376,1.95,0.003,1.95,0.099,0.518,0.013,28.61,-80.6,9.787,0.001,0,-0.005,-0.006,5.794e4,1.488e4,51.319,0.485,296.925,259.135,1.86,1.529,1.168e8,5681.001,1963.515,0.455,0.455,0.159,0.152,0.144,2.377e-4,7.38e-4,-3.728e-5,0,0,0,0,0,0.065,20.32,324.293,89.932,-0.864,0.1,3.226,814.049,333.254,0.05,0.288
6.423,1836.861,512.15,54.019,512.15,54.019,1.976,0.003,1.976,0.097,0.518,0.006,28.61,-80.6,9.787,0.001,0,-0.006,-0.038,5.78e4,1.474e4,51.289,0.484,296.594,259.126,1.844,1.537,1.172e8,5660.123,1972.15,0.453,0.453,0.159,0.151,0.143,1.594e-4,3.958e-4,9.368e-5,0,0,0,0,0,0.066,20.32,324.293,89.932,-0.325,0.1,3.06,811.464,333.154,0.05,0.289
6.473,1862.536,514.833,53.662,514.834,53.662,2.002,0.003,2.002,0.095,0.517,0.009,28.61,-80.6,9.787,9.996e-4,0,-0.01,-0.009,5.766e4,1.46e4,51.259,0.483,297.267,259.117,1.877,1.546,1.176e8,5639.266,1980.64,0.451,0.451,0.158,0.151,0.142,1.618e-4,6.588e-4,-5.154e-5,0,0,0,0,0,0.066,20.32,324.293,89.932,0.597,0.1,2.894,808.866,333.052,0.05,0.29
6.523,1888.344,517.499,53.306,517.499,53.306,2.028,0.003,2.028,0.093,0.517,0.019,28.61,-80.6,9.786,0.001,0,-0.009,-0.014,5.753e4,1.447e4,51.228,0.482,296.437,259.145,1.835,1.554,1.179e8,5618.42,1988.953,0.45,0.45,0.158,0.151,0.141,2.287e-4,8.078e-4,3.534e-4,0,0,0,0,0,0.066,20.32,324.293,89.932,0.936,0.1,2.726,806.253,332.951,0.05,0.29
6.573,1914.285,520.147,52.951,520.147,52.951,2.054,0.003,2.054,0.093,0.518,0.012,28.61,-80.6,9.786,6.14e-4,0,0.015,0.002,5.739e4,1.433e4,51.197,0.482,295.447,259.146,1.786,1.563,1.183e8,5597.598,1997.085,0.448,0.448,0.157,0.15,0.141,9.565e-5,6.571e-4,-2.957e-4,0,0,0,0,0,0.067,20.32,324.293,89.931,0.588,0.1,2.557,803.628,332.849,0.05,0.291
6.623,1940.358,522.777,52.598,522.777,52.598,2.08,0.003,2.08,0.093,0.519,0.019,28.61,-80.6,9.786,9.793e-4,0,0.003,-0.013,5.725e4,1.419e4,51.168,0.481,295.765,259.136,1.803,1.571,1.186e8,5576.789,2005.07,0.447,0.447,0.157,0.15,0.14,1.546e-4,3.568e-4,3.516e-4,0,0,0,0,0,0.067,20.32,324.293,89.932,-0.207,0.1,2.388,800.989,332.746,0.05,0.292
6.673,1966.562,525.389,52.246,525.389,52.246,2.106,0.003,2.106,0.093,0.519,0.017,28.61,-80.6,9.786,0.001,0,-0.007,-0.027,5.712e4,1.406e4,51.139,0.48,294.332,259.124,1.733,1.579,1.189e8,5556.002,2012.846,0.445,0.445,0.156,0.15,0.139,2.052e-4,1.95e-4,4.756e-4,0,0,0,0,0,0.067,20.32,324.293,89.933,-0.941,0.1,2.217,798.337,332.643,0.05,0.293
6.723,1992.896,527.984,51.894,527.984,51.894,2.132,0.003,2.132,0.091,0.519,0.023,28.61,-80.6,9.786,0.002,0,0.007,-0.014,5.698e4,1.392e4,51.11,0.48,293.501,259.112,1.692,1.588,1.192e8,5535.224,2020.491,0.444,0.444,0.156,0.15,0.138,3.066e-4,6.258e-4,-1.253e-4,0,0,0,0,0,0.068,20.32,324.293,89.934,-0.957,0.1,2.046,795.671,332.539,0.05,0.294
6.773,2019.36,530.561,51.54,530.561,51.54,2.157,0.003,2.157,0.089,0.518,0.008,28.61,-80.6,9.786,8.995e-4,-3.866e-7,-0.024,-0.02,5.685e4,1.379e4,51.078,0.479,293.673,259.139,1.7,1.596,1.196e8,5514.469,2028.18,0.442,0.442,0.155,0.149,0.138,1.367e-4,4.744e-4,3.447e-4,0,0,0,0,-5.072e-9,0.068,20.32,324.293,89.935,-0.235,0.1,1.874,793.089,332.435,0.05,0.295
6.823,2045.952,533.12,51.185,533.12,51.185,2.183,0.003,2.183,0.087,0.517,0.017,28.61,-80.6,9.786,0.001,0,-9.272e-4,0.004,5.671e4,1.365e4,51.049,0.478,293.878,259.138,1.71,1.604,1.199e8,5493.73,2035.795,0.441,0.441,0.155,0.149,0.137,2.154e-4,2.145e-4,-4.268e-4,0,0,0,0,0,0.068,20.32,324.293,89.935,0.604,0.1,1.701,790.529,332.33,0.05,0.296
6.873,2072.672,535.662,50.832,535.662,50.832,2.209,0.003,2.209,0.086,0.517,0.02,28.61,-80.6,9.786,0.001,0,0.027,-0.002,5.658e4,1.352e4,51.02,0.478,293.336,259.125,1.684,1.612,1.202e8,5473.009,2043.245,0.439,0.439,0.154,0.149,0.136,2.258e-4,3.444e-4,-2.734e-4,0,0,0,0,6.193e-9,0.069,20.32,324.293,89.935,0.839,0.1,1.528,787.957,332.225,0.05,0.296
6.923,2099.518,538.186,50.48,538.186,50.48,2.235,0.003,2.235,0.085,0.516,0.011,28.61,-80.6,9.786,8.23e-4,0,-0.008,-0.011,5.645e4,1.339e4,50.992,0.477,291.748,259.111,1.606,1.62,1.205e8,5452.307,2050.499,0.438,0.438,0.154,0.149,0.136,1.208e-4,-1.293e-4,1.54e-4,0,0,0,0,0,0.069,20.32,324.293,89.934,0.597,0.1,1.353,785.373,332.119,0.05,0.297
6.973,2126.49,540.692,50.128,540.692,50.128,2.261,0.003,2.261,0.085,0.517,0.019,28.61,-80.6,9.786,0.002,0,-0.033,-0.028,5.631e4,1.325e4,50.963,0.476,291.911,259.096,1.615,1.629,1.208e8,5431.623,2057.617,0.437,0.437,0.153,0.148,0.135,2.232e-4,8.273e-5,-1.155e-4,0,0,0,0,-9.085e-9,0.069,20.32,324.293,89.933,0.164,0.1,1.178,782.777,332.013,0.05,0.298
7.023,2153.587,543.181,49.779,543.181,49.779,2.287,0.003,2.287,0.085,0.518,0.031,28.61,-80.6,9.786,0.002,0,0.023,0.013,5.618e4,1.312e4,50.933,0.475,291.889,259.122,1.613,1.637,1.211e8,5410.952,2064.536,0.435,0.435,0.153,0.148,0.134,3.6e-4,6.274e-4,-1.563e-4,0,0,0,0,0,0.07,20.32,324.293,89.933,-0.264,0.1,1.002,780.169,331.906,0.05,0.299
7.073,2180.807,545.652,49.43,545.652,49.43,2.313,0.003,2.313,0.085,0.519,0.019,28.61,-80.6,9.786,0.002,-3.09e-7,0.05,0.008,5.605e4,1.299e4,50.904,0.475,291.235,259.12,1.58,1.645,1.214e8,5390.3,2071.292,0.434,0.434,0.152,0.148,0.134,2.326e-4,7.884e-4,-3.499e-5,0,0,0,0,2.015e-8,0.07,20.32,324.293,89.934,-0.161,0.1,0.825,777.549,331.799,0.05,0.3
7.123,2208.151,548.106,49.083,548.106,49.083,2.339,0.003,2.339,0.084,0.52,0.014,28.61,-80.6,9.785,8.63e-4,-9.131e-7,-0.002,0.043,5.592e4,1.286e4,50.876,0.474,291.412,259.104,1.59,1.652,1.217e8,5369.668,2077.876,0.433,0.433,0.152,0.148,0.133,1.276e-4,-2.741e-4,-3.789e-4,0,0,0,0,0,0.07,20.32,324.293,89.936,-0.022,0.1,0.647,774.917,331.691,0.05,0.301
7.173,2235.618,550.543,48.737,550.543,48.737,2.365,0.003,2.365,0.084,0.518,0.038,28.61,-80.6,9.785,0.002,-4.124e-7,-0.025,0.02,5.579e4,1.273e4,50.848,0.473,290.226,259.088,1.532,1.66,1.219e8,5349.05,2084.264,0.431,0.431,0.151,0.148,0.132,3.545e-4,6.759e-4,5.272e-5,0,0,0,0,0,0.07,20.32,324.293,89.938,-0.007,0.1,0.468,772.273,331.583,0.05,0.301
7.223,2263.205,552.962,48.392,552.962,48.392,2.39,0.003,2.39,0.084,0.516,0.041,28.61,-80.6,9.785,0.003,0,-0.028,-0.019,5.566e4,1.26e4,50.82,0.473,290.086,259.071,1.526,1.668,1.222e8,5328.448,2090.511,0.43,0.43,0.151,0.147,0.132,3.693e-4,8.89e-4,-2.814e-4,0,0,0,0,-5.981e-9,0.071,20.32,324.293,89.939,0.207,0.1,0.289,769.618,331.474,0.05,0.302
7.273,2290.913,555.364,48.049,555.364,48.049,2.416,0.004,2.416,0.083,0.514,0.034,28.61,-80.6,9.785,0.002,0,-0.001,0.007,5.553e4,1.247e4,50.79,0.472,290.083,259.097,1.525,1.676,1.224e8,5307.866,2096.56,0.429,0.429,0.15,0.147,0.131,2.894e-4,2.586e-4,-2.558e-4,0,0,0,0,0,0.071,20.32,324.293,89.939,0.737,0.1,0.109,766.951,331.365,0.05,0.303
7.323,2318.741,557.749,47.708,557.749,47.708,2.442,0.004,2.442,0.084,0.513,0.013,28.61,-80.6,9.785,8.678e-4,4.998e-7,0.015,-0.033,5.54e4,1.234e4,50.762,0.471,288.769,259.092,1.461,1.684,1.227e8,5287.303,2102.44,0.428,0.428,0.15,0.147,0.13,1.225e-4,3.156e-5,-1.062e-4,0,0,0,0,0,0.071,20.32,324.293,89.937,0.647,0.1,-0.072,764.272,331.255,0.05,0.304
7.373,2346.688,560.117,47.367,560.117,47.367,2.468,0.004,2.468,0.084,0.513,0.013,28.61,-80.6,9.785,0.002,0,-0.031,-8.328e-4,5.527e4,1.221e4,50.735,0.471,288.506,259.074,1.448,1.691,1.229e8,5266.753,2108.151,0.426,0.426,0.15,0.147,0.13,2.309e-4,6.12e-4,-2.582e-4,0,0,0,0,-7.536e-9,0.072,20.32,324.293,89.935,0.278,0.1,-0.253,761.582,331.145,0.05,0.305
7.423,2374.752,562.468,47.029,562.468,47.029,2.493,0.004,2.493,0.085,0.514,0.03,28.61,-80.6,9.785,0.003,0,0.003,-0.01,5.514e4,1.208e4,50.708,0.47,288.103,259.056,1.429,1.699,1.231e8,5246.224,2113.666,0.425,0.425,0.149,0.147,0.129,4.086e-4,2.805e-4,-2.96e-5,0,0,0,0,0,0.072,20.32,324.293,89.935,-0.002,0.1,-0.436,758.881,331.035,0.05,0.306
7.473,2402.934,564.802,46.691,564.802,46.691,2.519,0.004,2.519,0.086,0.515,0.016,28.61,-80.6,9.785,0.002,0,0.006,-0.02,5.501e4,1.195e4,50.681,0.469,288.518,259.037,1.451,1.707,1.233e8,5225.711,2119.031,0.424,0.424,0.149,0.146,0.129,2.498e-4,2.17e-4,-3.317e-5,0,0,0,0,0,0.072,20.32,324.293,89.936,-0.459,0.1,-0.619,756.168,330.924,0.05,0.307
7.523,2431.232,567.119,46.355,567.119,46.355,2.545,0.004,2.545,0.086,0.516,0.019,28.61,-80.6,9.785,0.001,3.494e-7,0.004,-0.063,5.488e4,1.182e4,50.651,0.469,287.602,259.062,1.405,1.714,1.236e8,5205.216,2124.207,0.423,0.423,0.148,0.146,0.128,1.666e-4,-1.242e-4,1.489e-4,0,0,0,0,0,0.073,20.32,324.293,89.938,-0.772,0.1,-0.803,753.444,330.812,0.05,0.308
7.573,2459.646,569.419,46.021,569.42,46.021,2.57,0.004,2.57,0.086,0.514,0.047,28.61,-80.6,9.785,0.002,0,-0.053,-0.03,5.475e4,1.169e4,50.623,0.468,286.945,259.056,1.372,1.722,1.238e8,5184.737,2129.201,0.421,0.421,0.148,0.146,0.128,3.442e-4,8.337e-4,-3.079e-4,0,0,0,0,-2.092e-8,0.073,20.32,324.293,89.941,-0.662,0.1,-0.988,750.71,330.7,0.05,0.309
7.623,2488.174,571.703,45.688,571.703,45.688,2.596,0.004,2.596,0.085,0.511,0.068,28.61,-80.6,9.785,0.004,4.754e-7,-0.007,-0.028,5.463e4,1.157e4,50.597,0.467,286.701,259.037,1.361,1.729,1.24e8,5164.276,2134.037,0.42,0.42,0.147,0.146,0.127,5.386e-4,8.916e-4,-4.139e-4,0,0,0,0,0,0.073,20.32,324.293,89.942,-0.095,0.1,-1.173,747.964,330.588,0.05,0.31
7.673,2516.816,573.97,45.352,573.97,45.352,2.622,0.004,2.622,0.084,0.508,0.049,28.61,-80.6,9.785,0.003,5.796e-7,0.042,-0.002,5.45e4,1.144e4,50.571,0.467,287.034,259.017,1.379,1.737,1.241e8,5143.834,2138.91,0.419,0.419,0.147,0.146,0.127,3.489e-4,2.348e-4,1.944e-4,0,0,0,0,1.28e-8,0.073,20.32,324.293,89.941,0.383,0.1,-1.359,745.287,330.475,0.05,0.311
7.723,2545.57,576.22,45.015,576.22,45.015,2.647,0.004,2.647,0.084,0.507,0.009,28.61,-80.6,9.784,0.001,-5.812e-7,-0.068,-0.029,5.437e4,1.131e4,50.545,0.466,285.325,258.996,1.296,1.744,1.243e8,5123.41,2143.781,0.418,0.418,0.146,0.146,0.126,1.547e-4,7.736e-5,-2.55e-4,0,0,0,0,-3.368e-8,0.074,20.32,324.293,89.939,0.894,0.1,-1.546,742.657,330.362,0.05,0.312
7.773,2574.437,578.453,44.679,578.454,44.679,2.672,0.004,2.672,0.084,0.508,0.039,28.61,-80.6,9.784,0.004,4.429e-7,-0.053,-0.025,5.425e4,1.119e4,50.515,0.466,285.115,259.021,1.284,1.752,1.245e8,5102.999,2148.484,0.417,0.417,0.146,0.146,0.125,5.319e-4,7.239e-4,4.262e-4,0,0,0,0,-2.031e-8,0.074,20.32,324.293,89.936,1.508,0.1,-1.734,740.016,330.248,0.05,0.313
7.823,2603.415,580.67,44.345,580.67,44.345,2.698,0.004,2.698,0.085,0.51,0.058,28.61,-80.6,9.784,0.005,-3.241e-7,0.033,-0.008,5.412e4,1.106e4,50.488,0.465,284.946,259.014,1.276,1.759,1.247e8,5082.607,2153,0.416,0.416,0.146,0.145,0.125,7.274e-4,4.856e-4,1.395e-5,0,0,0,0,7.814e-9,0.074,20.32,324.293,89.935,1.228,0.1,-1.922,737.365,330.134,0.05,0.314
7.873,2632.504,582.87,44.013,582.87,44.013,2.723,0.004,2.723,0.087,0.513,0.033,28.61,-80.6,9.784,0.004,6.864e-7,0.076,-0.011,5.4e4,1.094e4,50.463,0.464,285.15,258.993,1.287,1.766,1.249e8,5062.235,2157.365,0.415,0.415,0.145,0.145,0.124,4.951e-4,5.7e-4,2.07e-4,0,0,0,0,4.135e-8,0.075,20.32,324.293,89.936,0.195,0.1,-2.111,734.704,330.019,0.05,0.314
7.923,2661.702,585.053,43.682,585.053,43.682,2.749,0.004,2.749,0.089,0.513,0.014,28.61,-80.6,9.784,6.023e-4,-1.275e-6,0.041,-0.06,5.387e4,1.081e4,50.437,0.464,285.431,258.971,1.302,1.773,1.251e8,5041.877,2161.55,0.414,0.414,0.145,0.145,0.124,8.193e-5,1.491e-4,9.463e-5,0,0,0,0,1.175e-8,0.075,20.32,324.293,89.94,-0.627,0.1,-2.301,732.033,329.904,0.05,0.315
7.973,2691.009,587.22,43.352,587.22,43.352,2.775,0.004,2.775,0.09,0.511,0.062,28.61,-80.6,9.784,0.003,-1.281e-6,-0.04,0.006,5.375e4,1.069e4,50.412,0.463,283.886,258.949,1.227,1.781,1.252e8,5021.54,2165.553,0.413,0.413,0.144,0.145,0.123,4.042e-4,2.227e-4,4.339e-4,0,0,0,0,-1.098e-8,0.075,20.32,324.293,89.943,-0.657,0.1,-2.492,729.352,329.789,0.05,0.316
