# Time (s),Altitude (m),Vertical velocity (m/s),Vertical acceleration (m/s²),Total velocity (m/s),Total acceleration (m/s²),Position East of launch (m),Position North of launch (m),Lateral distance (m),Lateral direction (°),Lateral velocity (m/s),Lateral acceleration (m/s²),Latitude (°),Longitude (°),Gravitational acceleration (m/s²),Angle of attack (°),Roll rate (°/s),Pitch rate (°/s),Yaw rate (°/s),Mass (g),Motor mass (g),Longitudinal moment of inertia (kg·m²),Rotational moment of inertia (kg·m²),CP location (cm),CG location (cm),Stability margin calibers (​),Mach number (​),Reynolds number (​),Thrust (N),Drag force (N),Drag coefficient (​),Axial drag coefficient (​),Friction drag coefficient (​),Pressure drag coefficient (​),Base drag coefficient (​),Normal force coefficient (​),Pitch moment coefficient (​),Yaw moment coefficient (​),Side force coefficient (​),Roll moment coefficient (​),Roll forcing coefficient (​),Roll damping coefficient (​),Pitch damping coefficient (​),Coriolis acceleration (m/s²),Reference length (cm),Reference area (cm²),Vertical orientation (zenith) (°),Lateral orientation (azimuth) (°),Wind velocity (m/s),Air temperature (°C),Air pressure (mbar),Speed of sound (m/s),Simulation time step (s),Computation time (s),MaxQ (mbar)
0.01,-3.039e-4,-0.061,-6.078,0.061,6.101,-2.659e-5,0,2.659e-5,180,0.005,0.532,36,-86,9.796,117.697,0,0,0,2.961e4,6251.974,13.284,0.208,NaN,162.826,NaN,3.327e-4,1.978e4,108.333,-3.675e-5,0.76,-0.154,0.627,0.012,0.12,NaN,NaN,NaN,NaN,NaN,NaN,NaN,NaN,7.213e-6,20.32,324.293,85,0,0.1,11.321,947.233,338.159,0.01,0.019,NaN
0.02,6.061e-5,0.012,1.214,0.012,1.218,5.303e-6,0,5.303e-6,0,0.001,0.106,36,-86,9.796,78.158,0,0,0,2.961e4,6245.948,13.28,0.208,NaN,162.81,NaN,3.01e-4,1.789e4,325,2.965e-6,0.78,0.015,0.648,0.012,0.12,NaN,NaN,NaN,NaN,NaN,NaN,NaN,NaN,1.439e-6,20.32,324.293,85,0,0.1,11.321,947.233,338.159,0.01,0.027,NaN
0.03,6.071e-4,0.097,8.508,0.098,8.54,5.312e-5,0,5.312e-5,0,0.009,0.744,36,-86,9.796,43.149,0,0,0,2.96e4,6239.923,13.276,0.208,NaN,162.794,NaN,4.308e-4,2.56e4,541.667,2.02e-4,0.71,0.506,0.578,0.012,0.12,NaN,NaN,NaN,NaN,NaN,NaN,NaN,NaN,1.153e-5,20.32,324.293,85,0,0.1,11.321,947.233,338.159,0.01,0.029,NaN
0.04,0.002,0.255,15.805,0.256,15.865,2.073e-4,0,2.073e-4,0,0.022,1.383,36,-86,9.796,20.609,0,0,0,2.959e4,6233.897,13.272,0.208,NaN,162.778,NaN,8.369e-4,4.974e4,758.333,0.001,0.607,0.778,0.475,0.012,0.12,NaN,NaN,NaN,NaN,NaN,NaN,NaN,NaN,3.029e-5,20.32,324.293,85,0,0.1,11.321,947.233,338.159,0.01,0.031,NaN
0.05,0.006,0.486,23.105,0.488,23.193,5.316e-4,0,5.316e-4,0,0.043,2.021,36,-86,9.796,11.339,0,0,0,2.959e4,6227.871,13.268,0.208,NaN,162.762,NaN,0.001,8.906e4,975,0.003,0.537,0.657,0.405,0.012,0.12,NaN,NaN,NaN,NaN,NaN,NaN,NaN,NaN,5.77e-5,20.32,324.293,85,0,0.1,11.321,947.232,338.159,0.01,0.033,NaN
0.06,0.012,0.79,30.408,0.793,30.524,0.001,0,0.001,0,0.069,2.66,36,-86,9.796,7.081,0,0,0,2.958e4,6221.845,13.264,0.208,NaN,162.746,NaN,0.002,1.42e5,1191.667,0.007,0.492,0.548,0.36,0.012,0.12,NaN,NaN,NaN,NaN,NaN,NaN,NaN,NaN,9.379e-5,20.32,324.293,85,0,0.1,11.321,947.232,338.159,0.01,0.034,NaN
0.07,0.022,1.167,37.714,1.172,37.858,0.002,0,0.002,0,0.102,3.3,36,-86,9.796,4.823,0,0,0,2.958e4,6215.82,13.261,0.208,NaN,162.73,NaN,0.004,2.082e5,1408.333,0.013,0.46,0.488,0.328,0.012,0.12,NaN,NaN,NaN,NaN,NaN,NaN,NaN,NaN,1.385e-4,20.32,324.293,85,0,0.1,11.321,947.23,338.159,0.01,0.036,NaN
0.08,0.036,1.618,45.023,1.624,45.195,0.003,0,0.003,0,0.142,3.939,36,-86,9.796,3.492,0,0,0,2.957e4,6209.794,13.257,0.208,NaN,162.714,NaN,0.005,2.875e5,1625,0.023,0.437,0.451,0.305,0.012,0.12,NaN,NaN,NaN,NaN,NaN,NaN,NaN,NaN,1.92e-4,20.32,324.293,85,0,0.1,11.321,947.229,338.159,0.01,0.038,NaN
0.09,0.055,2.141,52.334,2.149,52.534,0.005,0,0.005,0,0.187,4.579,36,-86,9.796,2.643,0,0,0,2.956e4,6203.768,13.253,0.208,NaN,162.698,NaN,0.006,3.797e5,1841.667,0.037,0.419,0.427,0.287,0.012,0.12,NaN,NaN,NaN,NaN,NaN,NaN,NaN,NaN,2.541e-4,20.32,324.293,85,0,0.1,11.321,947.227,338.159,0.01,0.041,NaN
0.1,0.079,2.737,59.649,2.748,59.876,0.007,0,0.007,0,0.239,5.219,36,-86,9.796,2.07,0,0,0,2.956e4,6197.742,13.249,0.208,NaN,162.682,NaN,0.008,4.848e5,2058.333,0.058,0.404,0.409,0.272,0.012,0.12,NaN,NaN,NaN,NaN,NaN,NaN,NaN,NaN,3.248e-4,20.32,324.293,85,0,0.1,11.32,947.224,338.159,0.01,0.044,NaN
0.11,0.11,3.407,66.966,3.42,67.221,0.01,0,0.01,0,0.298,5.859,36,-86,9.796,1.664,0,0,0,2.955e4,6191.717,13.245,0.208,NaN,162.666,NaN,0.01,6.029e5,2275,0.087,0.392,0.395,0.26,0.012,0.12,NaN,NaN,NaN,NaN,NaN,NaN,NaN,NaN,4.043e-4,20.32,324.293,85,0,0.1,11.32,947.221,338.159,0.01,0.047,NaN
0.12,0.148,4.15,74.285,4.165,74.569,0.013,0,0.013,0,0.363,6.499,36,-86,9.796,1.367,0,0,0,2.955e4,6185.691,13.241,0.208,NaN,162.65,NaN,0.012,7.339e5,2491.667,0.126,0.381,0.383,0.249,0.012,0.12,NaN,NaN,NaN,NaN,NaN,NaN,NaN,NaN,4.925e-4,20.32,324.293,85,0,0.1,11.32,947.216,338.159,0.01,0.049,NaN
0.13,0.193,4.927,77.75,4.946,78.047,0.017,0,0.017,0,0.431,6.802,36,-86,9.796,1.152,0,0,0,2.953e4,6173.913,13.233,0.208,NaN,162.618,NaN,0.015,8.71e5,2593.444,0.173,0.373,0.374,0.241,0.012,0.12,NaN,NaN,NaN,NaN,NaN,NaN,NaN,NaN,5.847e-4,20.32,324.293,85,0,0.1,11.32,947.211,338.159,0.01,0.05,NaN
0.14,0.246,5.7,77.341,5.722,77.636,0.022,0,0.022,0,0.499,6.766,36,-86,9.796,0.996,0,0,0,2.952e4,6162.135,13.226,0.208,NaN,162.587,NaN,0.017,1.007e6,2580.333,0.227,0.366,0.367,0.234,0.012,0.12,NaN,NaN,NaN,NaN,NaN,NaN,NaN,NaN,6.765e-4,20.32,324.293,85,0,0.1,11.319,947.205,338.158,0.01,0.052,NaN
0.15,0.307,6.469,76.931,6.494,77.225,0.027,0,0.027,0,0.566,6.731,36,-86,9.796,0.878,0,0,0,2.951e4,6150.357,13.218,0.208,NaN,162.555,NaN,0.019,1.143e6,2567.222,0.287,0.36,0.361,0.228,0.012,0.12,NaN,NaN,NaN,NaN,NaN,NaN,NaN,NaN,7.678e-4,20.32,324.293,85,0,0.1,11.319,947.199,338.158,0.01,0.054,NaN
0.16,0.376,7.234,76.521,7.262,76.813,0.033,0,0.033,0,0.633,6.695,36,-86,9.796,0.785,0,0,0,2.95e4,6138.579,13.211,0.208,NaN,162.524,NaN,0.022,1.278e6,2554.111,0.354,0.355,0.356,0.223,0.012,0.12,NaN,NaN,NaN,NaN,NaN,NaN,NaN,NaN,8.586e-4,20.32,324.293,85,0,0.1,11.318,947.191,338.158,0.01,0.055,NaN
0.17,0.452,7.995,76.11,8.026,76.4,0.04,0,0.04,0,0.699,6.659,36,-86,9.796,0.71,0,0,0,2.949e4,6126.801,13.203,0.208,NaN,162.493,NaN,0.024,1.412e6,2541,0.427,0.351,0.352,0.219,0.012,0.12,NaN,NaN,NaN,NaN,NaN,NaN,NaN,NaN,9.489e-4,20.32,324.293,85,0,0.1,11.318,947.182,338.158,0.01,0.057,NaN
0.18,0.536,8.752,75.698,8.786,75.987,0.047,0,0.047,0,0.766,6.623,36,-86,9.796,0.649,0,0,0,2.948e4,6115.023,13.195,0.208,NaN,162.461,NaN,0.026,1.546e6,2527.889,0.506,0.347,0.348,0.215,0.012,0.12,NaN,NaN,NaN,NaN,NaN,NaN,NaN,NaN,0.001,20.32,324.293,85,0,0.1,11.317,947.173,338.157,0.01,0.058,NaN
0.19,0.627,9.505,75.286,9.541,75.574,0.055,0,0.055,0,0.832,6.587,36,-86,9.796,0.598,0,0,0,2.946e4,6103.245,13.188,0.208,NaN,162.43,NaN,0.028,1.679e6,2514.778,0.591,0.344,0.344,0.212,0.012,0.12,NaN,NaN,NaN,NaN,NaN,NaN,NaN,NaN,0.001,20.32,324.293,85,0,0.1,11.317,947.163,338.157,0.01,0.059,NaN
0.2,0.726,10.253,74.873,10.293,75.159,0.063,0,0.063,0,0.897,6.551,36,-86,9.796,0.554,0,0,0,2.945e4,6091.467,13.18,0.208,NaN,162.398,NaN,0.03,1.811e6,2501.667,0.681,0.341,0.341,0.209,0.012,0.12,NaN,NaN,NaN,NaN,NaN,NaN,NaN,NaN,0.001,20.32,324.293,85,0,0.1,11.316,947.152,338.157,0.01,0.061,NaN
0.21,0.832,10.998,74.46,11.04,74.745,0.073,0,0.073,0,0.962,6.514,36,-86,9.796,0.517,0,0,0,2.944e4,6079.689,13.172,0.208,NaN,162.366,NaN,0.033,1.942e6,2488.556,0.778,0.338,0.339,0.206,0.012,0.12,NaN,NaN,NaN,NaN,NaN,NaN,NaN,NaN,0.001,20.32,324.293,85,0,0.1,11.316,947.14,338.156,0.01,0.062,NaN
0.22,0.946,11.741,74.371,11.786,74.655,0.083,0,0.083,0,1.027,6.507,36,-86,9.796,0.484,0,0,0,2.943e4,6067.644,13.164,0.208,NaN,162.334,NaN,0.035,2.073e6,2484.987,0.88,0.336,0.336,0.204,0.012,0.12,NaN,NaN,NaN,NaN,NaN,NaN,NaN,NaN,0.001,20.32,324.293,85,0,0.1,11.315,947.127,338.156,0.01,0.064,NaN
0.23,1.067,12.487,74.604,12.535,74.889,0.093,0,0.093,0,1.092,6.527,36,-86,9.796,0.455,0,0,0,2.942e4,6055.599,13.157,0.208,NaN,162.302,NaN,0.037,2.205e6,2490.962,0.988,0.334,0.334,0.201,0.012,0.12,NaN,NaN,NaN,NaN,NaN,NaN,NaN,NaN,0.001,20.32,324.293,85,0,0.1,11.314,947.114,338.155,0.01,0.065,NaN
0.24,1.195,13.236,74.837,13.286,75.122,0.105,0,0.105,0,1.158,6.547,36,-86,9.796,0.429,0,0,0,2.94e4,6043.555,13.149,0.208,NaN,162.27,NaN,0.039,2.337e6,2496.936,1.108,0.333,0.333,0.201,0.012,0.12,NaN,NaN,NaN,NaN,NaN,NaN,NaN,NaN,0.002,20.32,324.293,85,0,0.1,11.313,947.099,338.155,0.01,0.066,NaN
0.25,1.332,13.986,75.069,14.039,75.356,0.116,0,0.116,0,1.224,6.568,36,-86,9.796,0.406,0,0,0,2.939e4,6031.51,13.141,0.208,NaN,162.237,NaN,0.042,2.469e6,2502.91,1.237,0.333,0.333,0.201,0.012,0.12,NaN,NaN,NaN,NaN,NaN,NaN,NaN,NaN,0.002,20.32,324.293,85,0,0.1,11.312,947.084,338.154,0.01,0.068,NaN
0.26,1.475,14.739,75.302,14.795,75.59,0.129,0,0.129,0,1.289,6.588,36,-86,9.796,0.386,0,0,0,2.938e4,6019.466,13.133,0.208,NaN,162.205,NaN,0.044,2.602e6,2508.885,1.374,0.333,0.333,0.201,0.012,0.12,NaN,NaN,NaN,NaN,NaN,NaN,NaN,NaN,0.002,20.32,324.293,85,0,0.1,11.311,947.068,338.154,0.01,0.069,NaN
0.27,1.626,15.494,75.535,15.553,75.823,0.142,0,0.142,0,1.356,6.608,36,-86,9.796,0.367,0,0,0,2.937e4,6007.421,13.125,0.208,NaN,162.172,NaN,0.046,2.735e6,2514.859,1.518,0.333,0.333,0.201,0.012,0.12,NaN,NaN,NaN,NaN,NaN,NaN,NaN,NaN,0.002,20.32,324.293,85,0,0.1,11.31,947.051,338.153,0.01,0.07,NaN
0.28,1.785,16.252,75.767,16.314,76.057,0.156,0,0.156,0,1.422,6.629,36,-86,9.796,0.35,0,0,0,2.936e4,5995.377,13.117,0.208,NaN,162.14,NaN,0.048,2.869e6,2520.833,1.67,0.333,0.333,0.201,0.012,0.12,NaN,NaN,NaN,NaN,NaN,NaN,NaN,NaN,0.002,20.32,324.293,85,0,0.1,11.309,947.034,338.152,0.01,0.072,NaN
0.29,1.951,17.011,76,17.076,76.29,0.171,0,0.171,0,1.488,6.649,36,-86,9.796,0.334,0,0,0,2.934e4,5983.332,13.109,0.208,NaN,162.107,NaN,0.051,3.003e6,2526.808,1.83,0.333,0.333,0.201,0.012,0.12,NaN,NaN,NaN,NaN,NaN,NaN,NaN,NaN,0.002,20.32,324.293,85,0,0.1,11.308,947.015,338.152,0.01,0.073,NaN
0.3,2.125,17.774,76.232,17.842,76.523,0.186,0,0.186,0,1.555,6.669,36,-86,9.796,0.32,0,0,0,2.933e4,5971.287,13.101,0.208,NaN,162.075,NaN,0.053,3.137e6,2532.782,1.998,0.333,0.333,0.201,0.012,0.12,NaN,NaN,NaN,NaN,NaN,NaN,NaN,NaN,0.002,20.32,324.293,85,0,0.1,11.307,946.996,338.151,0.01,0.075,NaN
0.31,2.307,18.538,76.464,18.609,76.756,0.202,0,0.202,0,1.622,6.69,36,-86,9.796,0.307,0,0,0,2.932e4,5959.243,13.094,0.208,NaN,162.042,NaN,0.055,3.272e6,2538.756,2.173,0.333,0.333,0.201,0.012,0.12,NaN,NaN,NaN,NaN,NaN,NaN,NaN,NaN,0.002,20.32,324.293,85,0,0.1,11.306,946.975,338.15,0.01,0.076,NaN
0.32,2.496,19.305,76.697,19.379,76.99,0.218,0,0.218,0,1.689,6.71,36,-86,9.796,0.294,0,0,0,2.931e4,5947.198,13.086,0.208,NaN,162.01,NaN,0.057,3.407e6,2544.731,2.357,0.333,0.333,0.201,0.012,0.12,NaN,NaN,NaN,NaN,NaN,NaN,NaN,NaN,0.002,20.32,324.293,85,0,0.1,11.305,946.954,338.15,0.01,0.077,NaN
0.33,2.693,20.074,76.929,20.151,77.223,0.236,0,0.236,0,1.756,6.73,36,-86,9.796,0.283,0,0,0,2.93e4,5935.154,13.078,0.208,NaN,161.977,NaN,0.06,3.543e6,2550.705,2.548,0.333,0.333,0.201,0.012,0.12,NaN,NaN,NaN,NaN,NaN,NaN,NaN,NaN,0.002,20.32,324.293,85,0,0.1,11.303,946.932,338.149,0.01,0.079,NaN
0.34,2.898,20.846,77.161,20.925,77.456,0.254,0,0.254,0,1.824,6.751,36,-86,9.796,0.273,0,0,0,2.928e4,5923.109,13.07,0.208,NaN,161.945,NaN,0.062,3.679e6,2556.679,2.748,0.333,0.333,0.201,0.012,0.12,NaN,NaN,NaN,NaN,NaN,NaN,NaN,NaN,0.002,20.32,324.293,85,0,0.1,11.302,946.909,338.148,0.01,0.081,NaN
0.35,3.11,21.619,77.393,21.702,77.688,0.272,0,0.272,0,1.891,6.771,36,-86,9.796,0.263,0,0,0,2.927e4,5911.065,13.062,0.208,NaN,161.912,NaN,0.064,3.815e6,2562.654,2.956,0.333,0.334,0.201,0.012,0.121,NaN,NaN,NaN,NaN,NaN,NaN,NaN,NaN,0.003,20.32,324.293,85,0,0.1,11.301,946.886,338.147,0.01,0.082,NaN
0.36,3.33,22.395,77.625,22.481,77.921,0.291,0,0.291,0,1.959,6.791,36,-86,9.796,0.254,0,0,0,2.926e4,5899.02,13.054,0.208,NaN,161.879,NaN,0.067,3.952e6,2568.628,3.172,0.333,0.334,0.201,0.012,0.121,NaN,NaN,NaN,NaN,NaN,NaN,NaN,NaN,0.003,20.32,324.293,85,0,0.1,11.299,946.861,338.146,0.01,0.084,NaN
0.37,3.558,23.174,77.856,23.262,78.154,0.311,0,0.311,0,2.027,6.812,36,-86,9.796,0.245,0,0,0,2.925e4,5886.975,13.046,0.208,NaN,161.847,NaN,0.069,4.089e6,2574.603,3.397,0.334,0.334,0.201,0.012,0.121,NaN,NaN,NaN,NaN,NaN,NaN,NaN,NaN,0.003,20.32,324.293,85,0,0.1,11.298,946.835,338.145,0.01,0.085,NaN
0.38,3.793,23.955,78.088,24.046,78.386,0.332,0,0.332,0,2.096,6.832,36,-86,9.796,0.237,0,0,0,2.923e4,5874.931,13.038,0.208,NaN,161.814,NaN,0.071,4.227e6,2580.577,3.63,0.334,0.334,0.201,0.012,0.121,NaN,NaN,NaN,NaN,NaN,NaN,NaN,NaN,0.003,20.32,324.293,85,0,0.1,11.296,946.809,338.144,0.01,0.086,NaN
0.395,4.162,25.129,78.312,25.226,78.688,0.364,2.057e-8,0.364,3.236e-6,2.211,7.689,36,-86,9.796,0.255,0,0.014,-2.863e-5,2.922e4,5856.864,13.026,0.208,208.985,161.765,2.324,0.075,4.434e6,2588.045,3.996,0.334,0.334,0.201,0.012,0.121,0.041,0.095,-1.154e-4,0,0,0,0,1.7e-7,0.003,20.32,324.293,85,1.138e-6,0.1,11.294,946.768,338.143,0.015,0.088,NaN
0.418,4.747,26.9,78.756,27.005,79.134,0.416,1.32e-7,0.416,1.819e-5,2.385,7.724,36,-86,9.796,0.277,0,0.04,9.195e-5,2.919e4,5829.764,13.008,0.208,208.957,161.691,2.326,0.08,4.746e6,2599.247,4.581,0.334,0.334,0.201,0.012,0.121,0.045,0.104,1.752e-4,0,0,0,0,1.182e-6,0.003,20.32,324.293,84.999,1.528e-6,0.1,11.29,946.703,338.141,0.023,0.089,NaN
0.451,5.7,29.578,79.422,29.696,79.802,0.501,4.943e-7,0.501,5.655e-5,2.647,7.779,36,-86,9.796,0.304,0,0.09,1.13e-4,2.915e4,5789.113,12.981,0.208,208.924,161.58,2.33,0.088,5.219e6,2616.05,5.542,0.334,0.334,0.201,0.012,0.121,0.049,0.115,-1.064e-5,0,0,0,0,4.975e-6,0.004,20.32,324.293,84.997,-3.225e-6,0.1,11.284,946.596,338.137,0.034,0.09,NaN
0.501,7.279,33.594,80.408,33.731,80.791,0.643,1.507e-6,0.643,1.343e-4,3.04,7.864,36,-86,9.796,0.33,0,0.192,3.156e-4,2.909e4,5728.89,12.941,0.208,208.895,161.415,2.337,0.1,5.927e6,2641.067,7.156,0.334,0.334,0.201,0.012,0.121,0.053,0.125,3.409e-5,0,0,0,0,1.754e-5,0.004,20.32,324.293,84.99,-1.409e-5,0.1,11.274,946.42,338.131,0.05,0.092,NaN
0.551,9.061,37.669,81.556,37.825,81.944,0.805,3.156e-6,0.805,2.247e-4,3.438,7.973,36,-86,9.796,0.343,0,0.331,2.459e-4,2.903e4,5668.668,12.901,0.208,208.886,161.249,2.344,0.112,6.645e6,2670.939,9.005,0.335,0.335,0.201,0.012,0.122,0.056,0.131,-2.16e-4,0,0,0,0,4.136e-5,0.004,20.32,324.293,84.977,-1.785e-5,0.1,11.262,946.221,338.124,0.05,0.093,NaN
0.601,11.047,41.801,82.699,41.977,83.094,0.987,5.516e-6,0.987,3.202e-4,3.842,8.095,36,-86,9.796,0.344,0,0.509,4.237e-5,2.897e4,5608.331,12.861,0.208,208.896,161.082,2.353,0.124,7.373e6,2700.81,11.102,0.335,0.335,0.2,0.013,0.122,0.056,0.131,-4.058e-4,0,0,0,0,7.943e-5,0.005,20.32,324.293,84.956,-2.761e-5,0.1,11.249,945.999,338.116,0.05,0.094,NaN
0.651,13.242,45.987,83.796,46.184,84.2,1.189,8.658e-6,1.189,4.171e-4,4.252,8.231,36,-86,9.796,0.332,0,0.722,3.671e-4,2.89e4,5543.542,12.817,0.208,208.925,160.903,2.363,0.137,8.111e6,2729.088,13.453,0.336,0.336,0.2,0.013,0.122,0.054,0.127,-1.176e-5,0,0,0,0,1.323e-4,0.005,20.32,324.293,84.926,-8.547e-5,0.1,11.235,945.754,338.107,0.05,0.096,NaN
0.701,15.647,50.226,84.838,50.443,85.251,1.412,1.261e-5,1.412,5.117e-4,4.669,8.384,36,-86,9.796,0.308,-3.095e-7,0.968,3.963e-4,2.884e4,5478.754,12.773,0.207,208.973,160.722,2.375,0.149,8.857e6,2755.921,16.068,0.336,0.336,0.2,0.013,0.123,0.05,0.118,1.257e-4,0,0,0,0,1.991e-4,0.006,20.32,324.293,84.884,-2.741e-4,0.1,11.219,945.485,338.098,0.05,0.097,NaN
0.751,18.266,54.517,85.872,54.755,86.298,1.656,1.739e-5,1.656,6.014e-4,5.095,8.565,36,-86,9.796,0.272,0,1.232,0.002,2.877e4,5413.965,12.729,0.207,209.04,160.541,2.387,0.162,9.612e6,2782.754,18.958,0.337,0.337,0.2,0.013,0.123,0.044,0.105,-2.976e-4,0,0,0,0,2.737e-4,0.006,20.32,324.293,84.829,-4.818e-4,0.1,11.202,945.192,338.087,0.05,0.098,NaN
0.801,21.1,58.86,86.898,59.119,87.34,1.922,2.295e-5,1.922,6.841e-4,5.531,8.777,36,-86,9.796,0.225,-9.049e-7,1.502,0.002,2.871e4,5349.177,12.685,0.207,209.124,160.359,2.4,0.175,1.038e7,2809.588,22.133,0.337,0.337,0.2,0.013,0.124,0.036,0.087,-2.119e-4,0,0,0,0,3.488e-4,0.007,20.32,324.293,84.76,-7.967e-4,0.1,11.184,944.876,338.076,0.05,0.099,NaN
0.851,24.153,63.254,87.915,63.535,88.376,2.21,2.92e-5,2.21,7.57e-4,5.978,9.021,36,-86,9.796,0.168,-6.253e-7,1.747,0.002,2.864e4,5284.388,12.641,0.207,209.224,160.175,2.414,0.188,1.115e7,2836.421,25.605,0.338,0.338,0.2,0.013,0.125,0.027,0.064,3.551e-4,0,0,0,0,4.088e-4,0.008,20.32,324.293,84.679,-9.982e-4,0.1,11.164,944.534,338.064,0.05,0.1,NaN
0.901,27.427,67.698,88.922,68.003,89.407,2.52,3.609e-5,2.52,8.206e-4,6.438,9.296,36,-86,9.796,0.103,-2.497e-6,1.943,0.003,2.858e4,5219.535,12.596,0.207,209.337,159.991,2.428,0.201,1.193e7,2863.249,29.385,0.339,0.339,0.2,0.013,0.125,0.017,0.039,-4.985e-4,0,0,0,0,4.412e-4,0.008,20.32,324.293,84.586,-9.724e-4,0.1,11.143,944.169,338.051,0.05,0.101,NaN
0.951,30.924,72.177,89.628,72.508,90.137,2.854,4.365e-5,2.854,8.765e-4,6.911,9.569,36,-86,9.796,0.034,-3.337e-7,2.057,0.014,2.851e4,5152.162,12.549,0.207,209.457,159.799,2.444,0.215,1.272e7,2881.425,33.473,0.339,0.339,0.2,0.014,0.126,0.006,0.013,-3.764e-4,0,0,0,0,4.351e-4,0.009,20.32,324.293,84.486,-0.001,0.1,11.12,943.778,338.038,0.05,0.103,NaN
1.001,34.645,76.678,90.05,77.034,90.585,3.211,5.19e-5,3.211,9.26e-4,7.397,9.831,36,-86,9.796,0.033,-1.465e-6,-2.055,0.018,2.844e4,5084.79,12.503,0.207,209.483,159.606,2.455,0.228,1.351e7,2891.758,37.863,0.34,0.34,0.2,0.014,0.127,0.005,0.013,4.094e-5,0,0,0,0,-3.847e-4,0.009,20.32,324.293,84.383,-0.001,0.1,11.096,943.362,338.023,0.05,0.104,NaN
1.051,38.592,81.2,90.463,81.583,91.024,3.594,6.079e-5,3.594,9.693e-4,7.896,10.092,36,-86,9.796,0.092,1.217e-6,-1.915,0.004,2.838e4,5017.417,12.456,0.207,209.421,159.412,2.461,0.241,1.43e7,2902.092,42.565,0.341,0.341,0.2,0.014,0.128,0.015,0.037,-1.726e-4,0,0,0,0,-2.979e-4,0.01,20.32,324.293,84.283,-0.001,0.1,11.07,942.921,338.007,0.05,0.105,NaN
1.101,42.766,85.743,90.868,86.154,91.454,4.001,7.035e-5,4.001,0.001,8.408,10.334,36,-86,9.796,0.138,1.212e-6,-1.621,0.003,2.831e4,4950.045,12.409,0.207,209.381,159.218,2.469,0.255,1.509e7,2912.425,47.584,0.342,0.342,0.199,0.014,0.128,0.022,0.056,-1.464e-4,0,0,0,0,-1.915e-4,0.01,20.32,324.293,84.194,-0.001,0.1,11.043,942.455,337.991,0.05,0.106,NaN
1.151,47.167,90.305,91.267,90.746,91.873,4.435,8.065e-5,4.435,0.001,8.931,10.536,36,-86,9.796,0.165,-8.266e-7,-1.197,0.004,2.824e4,4882.672,12.361,0.207,209.371,159.022,2.478,0.269,1.589e7,2922.758,52.928,0.343,0.343,0.199,0.014,0.129,0.027,0.066,2.932e-4,0,0,0,0,-9.401e-5,0.011,20.32,324.293,84.124,-8.402e-4,0.1,11.014,941.963,337.974,0.05,0.108,NaN
1.201,51.797,94.887,91.662,95.358,92.282,4.894,9.201e-5,4.894,0.001,9.462,10.679,36,-86,9.796,0.168,1.18e-6,-0.676,9.384e-4,2.818e4,4815.296,12.314,0.207,209.396,158.825,2.489,0.282,1.67e7,2933.086,58.604,0.344,0.344,0.199,0.015,0.13,0.027,0.067,9.784e-5,0,0,0,0,-2.715e-5,0.011,20.32,324.293,84.077,-5.461e-5,0.1,10.984,941.446,337.955,0.05,0.109,NaN
1.251,56.656,99.472,91.713,99.974,92.337,5.381,1.05e-4,5.381,0.001,9.997,10.713,36,-86,9.796,0.146,9.372e-7,-0.138,-0.001,2.811e4,4747.772,12.266,0.207,209.458,158.627,2.502,0.296,1.75e7,2933.712,64.597,0.345,0.345,0.199,0.015,0.131,0.024,0.059,1.94e-4,0,0,0,0,-1.027e-6,0.012,20.32,324.293,84.057,7.721e-4,0.1,10.953,940.903,337.936,0.05,0.11,NaN
1.301,61.744,104.044,91.45,104.576,92.066,5.894,1.204e-4,5.894,0.001,10.531,10.639,36,-86,9.796,0.103,9.192e-7,0.338,-0.002,2.804e4,4680.249,12.217,0.207,209.552,158.428,2.516,0.31,1.829e7,2925.546,70.889,0.347,0.347,0.199,0.015,0.132,0.017,0.042,4.061e-4,0,0,0,0,5.636e-6,0.012,20.32,324.293,84.063,0.001,0.1,10.92,940.335,337.916,0.05,0.111,NaN
1.351,67.06,108.603,91.18,109.164,91.783,6.434,1.383e-4,6.434,0.001,11.059,10.501,36,-86,9.796,0.045,1.189e-6,0.652,0.001,2.797e4,4612.726,12.169,0.206,209.669,158.228,2.532,0.323,1.909e7,2917.379,77.483,0.348,0.348,0.199,0.016,0.134,0.007,0.019,3.598e-4,0,0,0,0,1.932e-5,0.013,20.32,324.293,84.089,9.456e-4,0.1,10.885,939.741,337.895,0.05,0.112,NaN
1.401,72.604,113.148,90.902,113.739,91.487,7,1.586e-4,7,0.001,11.579,10.327,36,-86,9.796,0.017,2.557e-6,-0.715,-0.013,2.791e4,4545.202,12.12,0.206,209.746,158.027,2.545,0.337,1.988e7,2909.212,84.383,0.349,0.349,0.198,0.016,0.135,0.003,0.007,-1.309e-4,0,0,0,0,-2.137e-5,0.013,20.32,324.293,84.125,8.897e-4,0.1,10.849,939.121,337.873,0.05,0.114,NaN
1.451,78.374,117.678,90.611,118.298,91.179,7.592,1.811e-4,7.592,0.001,12.09,10.16,36,-86,9.796,0.069,1.431e-6,-0.495,-0.007,2.784e4,4477.679,12.072,0.206,209.707,157.825,2.553,0.35,2.067e7,2901.046,91.589,0.351,0.351,0.198,0.016,0.136,0.011,0.028,-4.386e-4,0,0,0,0,-9.474e-6,0.014,20.32,324.293,84.156,0.001,0.1,10.811,938.477,337.851,0.05,0.114,NaN
1.501,84.371,122.194,90.302,122.841,90.859,8.209,2.065e-4,8.209,0.001,12.594,10.045,36,-86,9.796,0.099,0,-0.022,-0.004,2.777e4,4410.2,12.023,0.206,209.702,157.622,2.563,0.364,2.145e7,2892.876,99.101,0.352,0.352,0.198,0.017,0.137,0.016,0.041,-2.56e-4,0,0,0,0,-1.692e-8,0.015,20.32,324.293,84.17,0.003,0.1,10.772,937.807,337.827,0.05,0.115,NaN
1.551,90.593,126.685,89.792,127.36,90.347,8.851,2.357e-4,8.851,0.002,13.093,10.002,36,-86,9.796,0.1,1.124e-6,0.589,-0.006,2.77e4,4344.45,11.975,0.206,209.74,157.424,2.575,0.377,2.223e7,2879.9,106.904,0.353,0.353,0.198,0.017,0.138,0.016,0.042,-2.331e-4,0,0,0,0,1.155e-5,0.015,20.32,324.293,84.155,0.005,0.1,10.732,937.111,337.803,0.05,0.117,NaN
1.601,97.039,131.142,89.102,131.844,89.667,9.518,2.708e-4,9.518,0.002,13.592,10.05,36,-86,9.796,0.071,-1.412e-6,1.148,-0.007,2.764e4,4278.7,11.926,0.206,209.822,157.224,2.588,0.39,2.3e7,2862.567,114.982,0.355,0.355,0.198,0.017,0.14,0.012,0.03,3.843e-4,0,0,0,0,4.101e-5,0.016,20.32,324.293,84.111,0.007,0.1,10.69,936.391,337.777,0.05,0.118,NaN
1.651,103.706,135.563,88.39,136.294,88.975,10.21,3.134e-4,10.21,0.002,14.096,10.181,36,-86,9.796,0.022,-5.032e-6,1.478,-0.033,2.757e4,4212.949,11.878,0.206,209.934,157.024,2.604,0.404,2.377e7,2845.233,123.333,0.356,0.356,0.197,0.018,0.141,0.004,0.01,-1.295e-4,0,0,0,0,6.358e-5,0.016,20.32,324.293,84.043,0.008,0.1,10.647,935.646,337.751,0.05,0.12,NaN
1.701,110.594,139.949,87.661,140.71,88.27,10.928,3.649e-4,10.928,0.002,14.608,10.345,36,-86,9.796,0.03,3.905e-6,-1.438,-0.026,2.751e4,4147.199,11.829,0.206,209.965,156.822,2.615,0.417,2.452e7,2827.9,131.957,0.358,0.358,0.197,0.018,0.143,0.005,0.013,-1.074e-4,0,0,0,0,-5.645e-5,0.017,20.32,324.293,83.968,0.008,0.1,10.602,934.877,337.724,0.05,0.122,NaN
1.751,117.7,144.298,86.923,145.089,87.551,11.671,4.253e-4,11.671,0.002,15.127,10.467,36,-86,9.796,0.069,-5.264e-7,-1.014,-0.004,2.744e4,4081.449,11.78,0.206,209.955,156.62,2.625,0.43,2.527e7,2810.567,140.85,0.36,0.36,0.197,0.019,0.144,0.011,0.029,3.945e-4,0,0,0,0,-2.642e-5,0.017,20.32,324.293,83.906,0.007,0.1,10.556,934.083,337.696,0.05,0.124,NaN
1.801,125.023,148.61,86.183,149.432,86.818,12.44,4.929e-4,12.44,0.002,15.65,10.479,36,-86,9.796,0.078,-2.336e-6,-0.358,0.002,2.738e4,4015.79,11.731,0.206,209.987,156.417,2.636,0.443,2.601e7,2793.228,150.006,0.361,0.361,0.197,0.019,0.145,0.013,0.034,-3.621e-6,0,0,0,0,-3.104e-6,0.018,20.32,324.293,83.871,0.005,0.1,10.508,933.265,337.667,0.05,0.125,NaN
1.851,132.56,152.868,85.09,153.72,85.713,13.236,5.656e-4,13.236,0.002,16.168,10.314,36,-86,9.796,0.054,-1.12e-6,0.261,-0.011,2.731e4,3953.701,11.685,0.206,210.067,156.224,2.65,0.455,2.674e7,2766.45,159.381,0.363,0.363,0.197,0.02,0.147,0.009,0.023,-3.368e-4,0,0,0,0,1.559e-6,0.018,20.32,324.293,83.871,0.003,0.1,10.459,932.423,337.637,0.05,0.127,NaN
1.901,140.308,157.055,83.685,157.937,84.282,14.057,6.425e-4,14.057,0.003,16.673,10.011,36,-86,9.796,0.01,5.627e-6,0.584,-0.015,2.725e4,3891.613,11.638,0.206,210.177,156.03,2.665,0.468,2.746e7,2731.117,168.933,0.365,0.365,0.196,0.02,0.148,0.002,0.005,-3.539e-4,0,0,0,0,7.403e-6,0.019,20.32,324.293,83.895,0.004,0.1,10.409,931.557,337.607,0.05,0.128,NaN
1.951,148.264,161.172,82.269,162.083,82.837,14.903,7.233e-4,14.903,0.003,17.161,9.685,36,-86,9.796,0.034,1.218e-6,-0.44,-0.005,2.719e4,3829.524,11.591,0.205,210.19,155.836,2.675,0.48,2.816e7,2695.783,178.651,0.367,0.367,0.196,0.021,0.15,0.006,0.014,-4.943e-5,0,0,0,0,-3.977e-6,0.019,20.32,324.293,83.923,0.006,0.1,10.357,930.668,337.575,0.05,0.128,NaN
2.001,156.424,165.217,80.833,166.155,81.382,15.773,8.104e-4,15.773,0.003,17.635,9.438,36,-86,9.796,0.058,0,0.105,-0.007,2.713e4,3767.436,11.544,0.205,210.205,155.64,2.685,0.492,2.885e7,2660.45,188.521,0.369,0.369,0.196,0.021,0.152,0.009,0.026,-1.641e-4,0,0,0,0,2.173e-7,0.02,20.32,324.293,83.933,0.008,0.1,10.304,929.756,337.543,0.05,0.129,NaN
2.051,164.784,169.19,79.369,170.155,79.916,16.666,9.058e-4,16.666,0.003,18.1,9.337,36,-86,9.796,0.049,-1.853e-6,0.767,-0.006,2.707e4,3705.347,11.496,0.205,210.267,155.444,2.698,0.504,2.953e7,2625.117,198.528,0.37,0.37,0.196,0.022,0.153,0.008,0.022,9.912e-5,0,0,0,0,1.099e-5,0.02,20.32,324.293,83.91,0.009,0.1,10.25,928.822,337.51,0.05,0.13,NaN
2.101,173.341,173.089,77.879,174.081,78.441,17.583,0.001,17.583,0.003,18.564,9.367,36,-86,9.796,0.013,8.412e-6,1.15,-0.032,2.7e4,3643.385,11.449,0.205,210.369,155.247,2.713,0.516,3.019e7,2589.783,208.661,0.372,0.372,0.195,0.022,0.155,0.002,0.006,1.473e-4,0,0,0,0,2.359e-5,0.021,20.32,324.293,83.858,0.009,0.1,10.194,927.866,337.477,0.05,0.131,NaN
2.151,182.091,176.91,76.32,177.931,76.9,18.522,0.001,18.522,0.003,19.03,9.429,36,-86,9.796,0.027,-4.221e-6,-1.067,0.007,2.695e4,3586.349,11.405,0.205,210.406,155.065,2.724,0.527,3.083e7,2553.4,218.902,0.374,0.374,0.195,0.023,0.156,0.004,0.012,1.128e-4,0,0,0,0,-1.945e-5,0.021,20.32,324.293,83.799,0.008,0.1,10.137,926.889,337.442,0.05,0.132,NaN
2.201,191.03,180.652,74.725,181.701,75.314,19.486,0.001,19.486,0.004,19.499,9.398,36,-86,9.796,0.047,4.02e-6,-0.509,-0.001,2.689e4,3529.313,11.361,0.205,210.436,154.882,2.734,0.539,3.146e7,2516.067,229.229,0.376,0.376,0.195,0.023,0.158,0.008,0.021,-4.85e-4,0,0,0,0,-4.239e-6,0.022,20.32,324.293,83.758,0.01,0.1,10.079,925.89,337.407,0.05,0.133,NaN
2.251,200.154,184.314,73.139,185.391,73.715,20.472,0.001,20.472,0.004,19.961,9.201,36,-86,9.796,0.036,7.86e-7,0.129,0.003,2.683e4,3472.277,11.316,0.205,210.514,154.698,2.747,0.55,3.208e7,2478.733,239.626,0.378,0.378,0.195,0.024,0.159,0.006,0.016,2.218e-4,0,0,0,0,2.616e-7,0.022,20.32,324.293,83.751,0.013,0.1,10.02,924.871,337.371,0.05,0.134,NaN
2.301,209.459,187.897,71.558,189.002,72.106,21.481,0.002,21.481,0.004,20.409,8.873,36,-86,9.796,0.003,1.054e-6,0.431,0.031,2.678e4,3415.241,11.272,0.205,210.627,154.514,2.761,0.56,3.268e7,2441.4,250.082,0.38,0.38,0.194,0.024,0.161,4.5e-4,0.001,-2.839e-4,0,0,0,0,2.816e-6,0.022,20.32,324.293,83.769,0.011,0.1,9.959,923.831,337.334,0.05,0.136,NaN
2.351,218.942,191.4,69.969,192.531,70.488,22.513,0.002,22.513,0.004,20.84,8.54,36,-86,9.796,0.029,4.626e-7,-0.215,-0.002,2.672e4,3358.205,11.227,0.205,210.656,154.328,2.772,0.571,3.327e7,2404.067,260.581,0.382,0.382,0.194,0.025,0.162,0.005,0.013,-7.99e-5,0,0,0,0,-6.77e-7,0.023,20.32,324.293,83.788,0.012,0.1,9.898,922.772,337.297,0.05,0.137,NaN
2.401,228.598,194.824,68.359,195.98,68.864,23.565,0.002,23.565,0.005,21.256,8.329,36,-86,9.796,0.037,3.46e-6,0.388,0.003,2.666e4,3301.282,11.182,0.205,210.713,154.143,2.784,0.581,3.384e7,2366.736,271.105,0.384,0.384,0.194,0.026,0.164,0.006,0.017,8.141e-5,0,0,0,0,2.119e-6,0.023,20.32,324.293,83.784,0.012,0.1,9.835,921.693,337.259,0.05,0.139,NaN
2.451,238.423,198.175,66.896,199.356,67.409,24.638,0.002,24.638,0.005,21.668,8.303,36,-86,9.796,0.017,-2.365e-6,0.88,-0.02,2.661e4,3248.776,11.141,0.205,210.813,153.971,2.797,0.591,3.439e7,2334.388,281.667,0.386,0.386,0.194,0.026,0.165,0.003,0.007,4.758e-4,0,0,0,0,1.054e-5,0.024,20.32,324.293,83.749,0.013,0.1,9.771,920.595,337.22,0.05,0.139,NaN
2.501,248.414,201.461,65.585,202.668,66.117,25.732,0.002,25.732,0.005,22.082,8.367,36,-86,9.796,0.015,5.614e-6,-0.87,-0.039,2.656e4,3196.271,11.099,0.205,210.887,153.798,2.81,0.601,3.493e7,2306.554,292.285,0.387,0.387,0.194,0.027,0.167,0.002,0.007,-7.073e-5,0,0,0,0,-9.958e-6,0.024,20.32,324.293,83.7,0.012,0.1,9.706,919.479,337.181,0.05,0.14,NaN
2.551,258.567,204.682,64.277,205.915,64.817,26.846,0.002,26.846,0.005,22.498,8.345,36,-86,9.796,0.031,2.356e-6,-0.43,-0.016,2.65e4,3143.766,11.058,0.205,210.938,153.625,2.821,0.611,3.547e7,2278.721,302.954,0.389,0.389,0.193,0.028,0.168,0.005,0.014,4.141e-4,0,0,0,0,-2.361e-6,0.024,20.32,324.293,83.666,0.008,0.1,9.64,918.344,337.141,0.05,0.142,NaN
2.601,268.88,207.837,62.981,209.096,63.507,27.982,0.003,27.982,0.005,22.909,8.157,36,-86,9.796,0.02,1.967e-6,0.132,-0.012,2.645e4,3091.261,11.016,0.205,211.028,153.451,2.834,0.62,3.598e7,2250.888,313.652,0.391,0.391,0.193,0.028,0.17,0.003,0.009,2.227e-4,0,0,0,0,2.164e-7,0.025,20.32,324.293,83.662,0.003,0.1,9.573,917.192,337.1,0.05,0.143,NaN
2.651,279.349,210.928,61.691,212.211,62.19,29.137,0.003,29.137,0.006,23.307,7.861,36,-86,9.796,0.007,-3.661e-7,-0.251,-0.02,2.64e4,3038.756,10.974,0.205,211.121,153.276,2.847,0.63,3.649e7,2223.054,324.368,0.393,0.393,0.193,0.029,0.172,0.001,0.004,4.729e-4,0,0,0,0,-7.537e-7,0.025,20.32,324.293,83.676,0.004,0.1,9.505,916.023,337.059,0.05,0.144,NaN
2.701,289.971,213.953,60.384,215.261,60.863,30.312,0.003,30.312,0.006,23.69,7.616,36,-86,9.796,0.024,-1.513e-6,0.1,-0.02,2.635e4,2986.906,10.932,0.204,211.173,153.103,2.858,0.639,3.698e7,2195.117,335.091,0.395,0.395,0.193,0.03,0.173,0.004,0.012,-5.117e-5,0,0,0,0,1.169e-7,0.025,20.32,324.293,83.683,0.012,0.1,9.436,914.836,337.017,0.05,0.145,NaN
2.751,300.735,216.583,52.427,217.911,52.866,31.505,0.003,31.505,0.006,24.027,6.793,36,-86,9.796,0.017,1.865e-6,0.628,-0.052,2.632e4,2960.636,10.911,0.204,211.251,153.015,2.866,0.647,3.74e7,1992.185,344.56,0.397,0.397,0.192,0.03,0.174,0.003,0.008,-4.689e-4,0,0,0,0,4.494e-6,0.026,20.32,324.293,83.662,0.021,0.1,9.366,913.633,336.975,0.05,0.146,NaN
2.801,311.612,218.516,38.541,219.862,38.919,32.713,0.004,32.713,0.006,24.294,5.409,36,-86,9.796,0.006,-3.319e-6,-0.745,-0.132,2.629e4,2934.366,10.89,0.204,211.318,152.927,2.874,0.653,3.771e7,1630.634,351.559,0.399,0.399,0.192,0.031,0.175,0.001,0.003,-2.795e-4,0,0,0,0,-6.201e-6,0.026,20.32,324.293,83.623,0.022,0.1,9.295,912.418,336.932,0.05,0.147,NaN
2.851,322.569,219.756,24.732,221.116,25.049,33.933,0.004,33.933,0.006,24.492,3.969,36,-86,9.795,0.021,-3.329e-6,-0.392,-0.024,2.627e4,2908.096,10.868,0.204,211.331,152.839,2.879,0.656,3.789e7,1269.082,355.986,0.399,0.399,0.192,0.031,0.176,0.003,0.01,9.12e-6,0,0,0,0,-1.697e-6,0.026,20.32,324.293,83.591,0.015,0.1,9.224,911.194,336.889,0.05,0.148,NaN
2.901,333.571,220.307,11.011,221.678,11.269,35.16,0.004,35.16,0.007,24.614,2.395,36,-86,9.795,0.014,-4.221e-6,0.046,0.005,2.624e4,2881.826,10.847,0.204,211.356,152.75,2.884,0.658,3.795e7,907.53,357.772,0.4,0.4,0.192,0.031,0.176,0.002,0.007,1.017e-4,0,0,0,0,2.286e-8,0.026,20.32,324.293,83.584,0.007,0.1,9.153,909.965,336.845,0.05,0.149,NaN
2.951,344.583,220.174,-2.627,221.55,2.73,36.392,0.004,36.392,0.007,24.654,0.741,36,-86,9.795,0.007,-1.796e-6,-0.12,-0.005,2.622e4,2855.556,10.826,0.204,211.364,152.661,2.889,0.658,3.789e7,545.978,356.907,0.4,0.4,0.192,0.031,0.176,0.001,0.003,2.431e-4,0,0,0,0,-1.587e-7,0.026,20.32,324.293,83.593,0.006,0.1,9.081,908.734,336.802,0.05,0.151,NaN
3,355.297,219.387,-16.08,220.764,16.101,37.593,0.005,37.593,0.007,24.613,0.837,36,-86,9.795,0.018,2.509e-6,0.172,-0.015,2.62e4,2835,10.809,0.204,211.327,152.592,2.891,0.656,3.773e7,187.645,353.53,0.399,0.399,0.192,0.031,0.176,0.003,0.009,1.543e-4,0,0,0,0,3.297e-7,0.026,20.32,324.293,83.594,0.013,0.1,9.011,907.537,336.76,0.049,0.152,NaN
3.05,366.238,218.232,-23.021,219.607,23.076,38.822,0.005,38.822,0.007,24.532,1.582,36,-86,9.795,0.012,-1.268e-6,0.578,-0.057,2.62e4,2835,10.809,0.204,211.307,152.592,2.89,0.652,3.749e7,0,348.766,0.398,0.398,0.192,0.031,0.175,0.002,0.005,3.308e-4,0,0,0,0,3.747e-6,0.026,20.32,324.293,83.573,0.021,0.1,8.94,906.315,336.717,0.05,0.156,NaN
3.1,377.12,217.085,-22.854,218.458,22.902,40.046,0.005,40.046,0.007,24.456,1.47,36,-86,9.795,0.006,-9.327e-6,-0.601,-0.047,2.62e4,2835,10.809,0.204,211.286,152.592,2.888,0.649,3.726e7,0,344.091,0.398,0.398,0.192,0.031,0.175,0.001,0.003,-2.914e-4,0,0,0,0,-4.087e-6,0.026,20.32,324.293,83.54,0.022,0.1,8.87,905.099,336.674,0.05,0.157,NaN
3.15,387.946,215.947,-22.686,217.319,22.729,41.267,0.005,41.267,0.008,24.385,1.4,36,-86,9.795,0.017,1.294e-6,-0.365,-0.036,2.62e4,2835,10.809,0.204,211.242,152.592,2.886,0.646,3.704e7,0,339.506,0.397,0.397,0.192,0.03,0.174,0.003,0.008,-4.98e-5,0,0,0,0,-1.527e-6,0.026,20.32,324.293,83.513,0.016,0.1,8.799,903.89,336.631,0.05,0.158,NaN
3.2,398.715,214.817,-22.511,216.188,22.556,42.485,0.006,42.485,0.008,24.315,1.416,36,-86,9.795,0.01,-3.613e-6,-0.049,0.008,2.62e4,2835,10.809,0.204,211.223,152.592,2.885,0.642,3.681e7,0,335,0.396,0.396,0.192,0.03,0.174,0.002,0.005,-1.443e-4,0,0,0,0,-2.771e-8,0.026,20.32,324.293,83.504,0.007,0.1,8.729,902.686,336.589,0.05,0.158,NaN
3.25,409.428,213.696,-22.334,215.066,22.383,43.699,0.006,43.699,0.008,24.243,1.476,36,-86,9.795,0.005,-1.118e-6,-0.032,-0.008,2.62e4,2835,10.809,0.204,211.204,152.592,2.884,0.639,3.659e7,0,330.571,0.395,0.395,0.193,0.03,0.173,7.668e-4,0.002,-3.484e-4,0,0,0,0,-1.199e-8,0.025,20.32,324.293,83.507,0.007,0.1,8.66,901.489,336.547,0.05,0.16,NaN
3.3,420.085,212.583,-22.163,213.952,22.214,44.909,0.006,44.909,0.008,24.167,1.514,36,-86,9.795,0.015,0,0.216,-0.047,2.62e4,2835,10.809,0.204,211.161,152.592,2.882,0.636,3.637e7,0,326.219,0.395,0.395,0.193,0.03,0.173,0.003,0.007,1.63e-4,0,0,0,0,5.52e-7,0.025,20.32,324.293,83.504,0.015,0.1,8.59,900.299,336.505,0.05,0.161,NaN
3.35,430.686,211.479,-22.003,212.847,22.052,46.115,0.007,46.115,0.008,24.092,1.47,36,-85.999,9.795,0.01,-3.454e-6,0.479,-0.054,2.62e4,2835,10.809,0.204,211.142,152.592,2.881,0.633,3.615e7,0,321.941,0.394,0.394,0.193,0.029,0.172,0.002,0.005,1.213e-4,0,0,0,0,2.738e-6,0.025,20.32,324.293,83.485,0.024,0.1,8.521,899.114,336.463,0.05,0.162,NaN
3.4,441.233,210.383,-21.851,211.75,21.895,47.318,0.007,47.318,0.009,24.02,1.389,36,-85.999,9.795,0.004,-4.418e-6,-0.584,-0.132,2.62e4,2835,10.809,0.204,211.125,152.592,2.881,0.629,3.593e7,0,317.748,0.393,0.393,0.193,0.029,0.172,6.141e-4,0.002,1.124e-4,0,0,0,0,-4.119e-6,0.025,20.32,324.293,83.455,0.023,0.1,8.453,897.975,336.421,0.05,0.163,NaN
3.45,451.725,209.294,-21.7,210.66,21.741,48.517,0.007,48.517,0.009,23.953,1.328,36,-85.999,9.795,0.013,-5.816e-6,-0.376,6.444e-4,2.62e4,2835,10.809,0.204,211.085,152.592,2.879,0.626,3.572e7,0,313.631,0.393,0.393,0.193,0.029,0.171,0.002,0.007,-8.102e-5,0,0,0,0,-1.719e-6,0.025,20.32,324.293,83.429,0.016,0.1,8.385,896.859,336.38,0.05,0.164,NaN
3.5,462.163,208.213,-21.544,209.579,21.585,49.713,0.008,49.713,0.009,23.887,1.331,36,-85.999,9.795,0.01,-2.848e-6,-0.143,0.014,2.62e4,2835,10.809,0.204,211.065,152.592,2.878,0.623,3.551e7,0,309.582,0.392,0.392,0.193,0.029,0.17,0.002,0.005,2.607e-4,0,0,0,0,-2.517e-7,0.025,20.32,324.293,83.417,0.012,0.1,8.317,895.749,336.339,0.05,0.165,NaN
3.55,472.546,207.14,-21.386,208.505,21.43,50.906,0.008,50.906,0.009,23.82,1.37,36,-85.999,9.795,0.002,-1e-6,0.054,0.005,2.62e4,2835,10.809,0.204,211.052,152.592,2.877,0.62,3.529e7,0,305.6,0.391,0.391,0.193,0.028,0.17,2.528e-4,7.705e-4,1.865e-4,0,0,0,0,3.634e-8,0.025,20.32,324.293,83.415,0.013,0.1,8.249,894.644,336.298,0.05,0.166,NaN
3.6,482.877,206.074,-21.232,207.438,21.278,52.095,0.008,52.095,0.009,23.75,1.4,36,-85.999,9.795,0.011,-2.586e-6,0.173,-0.038,2.62e4,2835,10.809,0.204,211.014,152.592,2.875,0.617,3.509e7,0,301.683,0.391,0.391,0.193,0.028,0.169,0.002,0.005,-3.772e-4,0,0,0,0,3.747e-7,0.025,20.32,324.293,83.411,0.018,0.1,8.182,893.545,336.257,0.05,0.166,NaN
3.65,493.154,205.016,-21.086,206.379,21.131,53.281,0.009,53.281,0.009,23.68,1.38,36,-85.999,9.795,0.01,-5.517e-6,0.42,-0.05,2.62e4,2835,10.809,0.204,210.991,152.592,2.874,0.614,3.488e7,0,297.828,0.39,0.39,0.193,0.028,0.169,0.002,0.005,-1.692e-4,0,0,0,0,2.243e-6,0.024,20.32,324.293,83.395,0.024,0.1,8.115,892.452,336.217,0.05,0.167,NaN
3.7,503.378,203.965,-20.947,205.328,20.989,54.463,0.009,54.463,0.01,23.612,1.322,36,-85.999,9.795,7.846e-4,-2.005e-6,0.318,-0.441,2.62e4,2835,10.809,0.204,210.981,152.592,2.873,0.611,3.467e7,0,294.036,0.389,0.389,0.193,0.028,0.169,1.306e-4,6.359e-4,-2.217e-4,0,0,0,0,1.299e-6,0.024,20.32,324.293,83.369,0.024,0.1,8.049,891.364,336.177,0.05,0.168,NaN
3.75,513.55,202.921,-20.811,204.283,20.849,55.642,0.009,55.642,0.01,23.548,1.265,36,-85.999,9.795,0.009,-1.002e-5,-0.456,0.028,2.62e4,2835,10.809,0.204,210.945,152.592,2.872,0.608,3.447e7,0,290.304,0.389,0.389,0.193,0.027,0.168,0.002,0.005,-3.218e-4,0,0,0,0,-2.689e-6,0.024,20.32,324.293,83.343,0.017,0.1,7.983,890.282,336.136,0.05,0.169,NaN
3.8,523.671,201.884,-20.671,203.246,20.709,56.818,0.01,56.818,0.01,23.485,1.247,36,-85.999,9.795,0.011,-5.212e-6,-0.221,0.033,2.62e4,2835,10.809,0.204,210.921,152.592,2.871,0.605,3.427e7,0,286.631,0.388,0.388,0.193,0.027,0.168,0.002,0.005,1.994e-4,0,0,0,0,-6.411e-7,0.024,20.32,324.293,83.326,0.013,0.1,7.917,889.206,336.097,0.05,0.17,NaN
3.85,533.739,200.854,-20.53,202.215,20.569,57.991,0.01,57.991,0.01,23.423,1.269,36,-85.999,9.795,0.003,-2.459e-6,-0.106,0.027,2.62e4,2835,10.809,0.204,210.91,152.592,2.87,0.602,3.407e7,0,283.016,0.388,0.388,0.193,0.027,0.167,4.318e-4,0.002,1.02e-4,0,0,0,0,-1.482e-7,0.024,20.32,324.293,83.318,0.014,0.1,7.852,888.135,336.057,0.05,0.171,NaN
3.9,543.756,199.831,-20.39,201.192,20.431,59.16,0.011,59.16,0.01,23.358,1.299,36,-85.999,9.795,0.007,-3.385e-6,0.164,-0.025,2.62e4,2835,10.809,0.204,210.881,152.592,2.869,0.599,3.387e7,0,279.459,0.387,0.387,0.194,0.027,0.167,0.001,0.003,3.027e-4,0,0,0,0,3.585e-7,0.024,20.32,324.293,83.313,0.02,0.1,7.786,887.069,336.018,0.05,0.172,NaN
3.95,553.722,198.815,-20.255,200.175,20.297,60.327,0.011,60.327,0.01,23.293,1.297,36,-85.999,9.795,0.01,2.07e-6,0.323,-0.029,2.62e4,2835,10.809,0.204,210.856,152.592,2.867,0.596,3.367e7,0,275.958,0.386,0.386,0.194,0.027,0.166,0.002,0.005,-3.772e-4,0,0,0,0,1.412e-6,0.024,20.32,324.293,83.3,0.026,0.1,7.722,886.009,335.978,0.05,0.173,NaN
4,563.638,197.806,-20.126,199.165,20.166,61.49,0.011,61.49,0.011,23.229,1.264,36,-85.999,9.795,0.005,2.894e-7,0.461,-0.057,2.62e4,2835,10.809,0.204,210.841,152.592,2.867,0.593,3.347e7,0,272.512,0.386,0.386,0.194,0.026,0.166,8.656e-4,0.002,-2.768e-4,0,0,0,0,2.902e-6,0.024,20.32,324.293,83.279,0.025,0.1,7.657,884.954,335.939,0.05,0.173,NaN
4.05,573.503,196.803,-20.002,198.162,20.039,62.65,0.012,62.65,0.011,23.167,1.214,36,-85.999,9.795,0.004,-1.908e-6,-0.502,-0.013,2.62e4,2835,10.809,0.204,210.823,152.592,2.866,0.59,3.328e7,0,269.118,0.385,0.385,0.194,0.026,0.165,5.927e-4,0.001,-1.904e-5,0,0,0,0,-3.466e-6,0.023,20.32,324.293,83.254,0.019,0.1,7.593,883.905,335.9,0.05,0.174,NaN
4.1,583.318,195.806,-19.877,197.164,19.912,63.807,0.012,63.807,0.011,23.107,1.179,36,-85.999,9.795,0.009,-3.568e-6,-0.386,0.024,2.62e4,2835,10.809,0.204,210.794,152.592,2.864,0.587,3.309e7,0,265.775,0.385,0.385,0.194,0.026,0.165,0.002,0.004,3.103e-4,0,0,0,0,-2.074e-6,0.023,20.32,324.293,83.231,0.012,0.1,7.529,882.861,335.862,0.05,0.175,NaN
4.15,593.084,194.815,-19.751,196.174,19.786,64.96,0.013,64.96,0.011,23.049,1.175,36,-85.999,9.795,0.007,-3.302e-6,-0.236,0.043,2.62e4,2835,10.809,0.204,210.777,152.592,2.863,0.584,3.29e7,0,262.484,0.384,0.384,0.194,0.026,0.164,0.001,0.003,1.824e-4,0,0,0,0,-7.852e-7,0.023,20.32,324.293,83.216,0.009,0.1,7.466,881.822,335.823,0.05,0.176,NaN
4.2,602.8,193.831,-19.624,195.189,19.661,66.111,0.013,66.111,0.011,22.99,1.194,36,-85.999,9.795,6.578e-4,-1.82e-6,0.031,0.151,2.62e4,2835,10.809,0.204,210.767,152.592,2.863,0.581,3.271e7,0,259.241,0.384,0.384,0.194,0.026,0.164,1.091e-4,3.336e-4,3.479e-4,0,0,0,0,1.363e-8,0.023,20.32,324.293,83.207,0.014,0.1,7.403,880.789,335.785,0.05,0.177,NaN
4.25,612.467,192.852,-19.499,194.211,19.537,67.259,0.013,67.259,0.011,22.929,1.213,36,-85.999,9.795,0.008,-2.486e-6,0.241,-0.03,2.62e4,2835,10.809,0.204,210.737,152.592,2.861,0.578,3.252e7,0,256.047,0.383,0.383,0.194,0.026,0.164,0.001,0.004,1.636e-5,0,0,0,0,8.343e-7,0.023,20.32,324.293,83.199,0.022,0.1,7.34,879.76,335.747,0.05,0.178,NaN
4.3,622.085,191.881,-19.379,193.238,19.417,68.404,0.014,68.404,0.011,22.868,1.205,36,-85.999,9.795,0.009,0,0.393,-0.04,2.62e4,2835,10.809,0.204,210.717,152.592,2.86,0.576,3.233e7,0,252.9,0.383,0.383,0.194,0.025,0.163,0.001,0.004,4.957e-4,0,0,0,0,2.233e-6,0.023,20.32,324.293,83.183,0.027,0.1,7.277,878.737,335.709,0.05,0.179,NaN
4.35,631.655,190.914,-19.264,192.272,19.3,69.546,0.014,69.546,0.012,22.809,1.17,36,-85.999,9.795,0.003,-2.754e-6,0.462,-0.125,2.62e4,2835,10.809,0.204,210.706,152.592,2.86,0.573,3.214e7,0,249.8,0.382,0.382,0.194,0.025,0.163,4.954e-4,0.002,-4.536e-4,0,0,0,0,3.116e-6,0.023,20.32,324.293,83.161,0.029,0.1,7.215,877.719,335.671,0.05,0.18,NaN
4.4,641.177,189.954,-19.151,191.312,19.185,70.685,0.014,70.685,0.012,22.751,1.132,36,-85.999,9.795,0.004,1.339e-6,-0.454,-0.093,2.62e4,2835,10.809,0.204,210.687,152.592,2.859,0.57,3.196e7,0,246.745,0.382,0.382,0.194,0.025,0.162,6.858e-4,0.002,-4.599e-5,0,0,0,0,-3.043e-6,0.023,20.32,324.293,83.136,0.024,0.1,7.153,876.707,335.634,0.05,0.18,NaN
4.45,650.65,188.999,-19.039,190.357,19.071,71.821,0.015,71.821,0.012,22.696,1.106,36,-85.999,9.794,0.008,-5.354e-6,-0.361,0.016,2.62e4,2835,10.809,0.204,210.663,152.592,2.858,0.567,3.177e7,0,243.735,0.381,0.381,0.194,0.025,0.162,0.001,0.003,7.367e-5,0,0,0,0,-1.948e-6,0.023,20.32,324.293,83.114,0.018,0.1,7.092,875.699,335.596,0.05,0.181,NaN
4.5,660.077,188.05,-18.925,189.408,18.957,72.955,0.015,72.955,0.012,22.641,1.105,36,-85.999,9.794,0.006,-2.399e-6,-0.25,0.031,2.62e4,2835,10.809,0.204,210.649,152.592,2.857,0.564,3.159e7,0,240.768,0.381,0.381,0.194,0.025,0.161,9.277e-4,0.002,3.51e-4,0,0,0,0,-9.413e-7,0.022,20.32,324.293,83.099,0.015,0.1,7.03,874.696,335.559,0.05,0.182,NaN
4.55,669.456,187.107,-18.811,188.465,18.844,74.085,0.016,74.085,0.012,22.585,1.118,36,-85.999,9.794,0.001,-5.845e-6,0.118,0.169,2.62e4,2835,10.809,0.204,210.638,152.592,2.857,0.562,3.141e7,0,237.844,0.38,0.38,0.194,0.025,0.161,2.381e-4,7.31e-4,7.304e-5,0,0,0,0,2.12e-7,0.022,20.32,324.293,83.088,0.014,0.1,6.969,873.699,335.522,0.05,0.183,NaN
4.6,678.787,186.169,-18.698,187.527,18.732,75.213,0.016,75.213,0.012,22.529,1.127,36,-85.999,9.794,0.006,-2.094e-6,0.26,0.004,2.62e4,2835,10.809,0.204,210.614,152.592,2.855,0.559,3.123e7,0,234.962,0.38,0.38,0.194,0.024,0.161,0.001,0.003,-1.473e-4,0,0,0,0,1.041e-6,0.022,20.32,324.293,83.076,0.018,0.1,6.909,872.706,335.486,0.05,0.183,NaN
4.65,688.073,185.237,-18.59,186.595,18.624,76.338,0.017,76.338,0.012,22.472,1.12,36,-85.999,9.794,0.007,4.819e-7,0.376,-0.017,2.62e4,2835,10.809,0.204,210.596,152.592,2.855,0.556,3.105e7,0,232.121,0.379,0.379,0.195,0.024,0.16,0.001,0.004,-3.982e-4,0,0,0,0,2.191e-6,0.022,20.32,324.293,83.06,0.023,0.1,6.848,871.718,335.449,0.05,0.184,NaN
4.7,697.311,184.31,-18.485,185.668,18.518,77.461,0.017,77.461,0.013,22.417,1.096,36,-85.999,9.794,0.004,-6.762e-6,0.462,-0.053,2.62e4,2835,10.809,0.204,210.585,152.592,2.854,0.554,3.088e7,0,229.32,0.379,0.379,0.195,0.024,0.16,5.795e-4,0.001,-4.804e-6,0,0,0,0,3.349e-6,0.022,20.32,324.293,83.038,0.025,0.1,6.788,870.735,335.413,0.05,0.185,NaN
4.75,706.504,183.388,-18.383,184.747,18.414,78.58,0.017,78.58,0.013,22.363,1.065,36,-85.999,9.794,0.002,-2.658e-6,-0.465,-0.083,2.62e4,2835,10.809,0.204,210.571,152.592,2.853,0.551,3.07e7,0,226.559,0.378,0.378,0.195,0.024,0.159,3.687e-4,0.001,-3.19e-4,0,0,0,0,-3.43e-6,0.022,20.32,324.293,83.014,0.026,0.1,6.729,869.758,335.376,0.05,0.186,NaN
4.8,715.65,182.472,-18.281,183.831,18.311,79.697,0.018,79.697,0.013,22.31,1.04,36,-85.999,9.794,0.006,-4.774e-6,-0.403,-0.008,2.62e4,2835,10.809,0.204,210.549,152.592,2.852,0.548,3.053e7,0,223.836,0.378,0.378,0.195,0.024,0.159,0.001,0.003,-2.598e-4,0,0,0,0,-2.605e-6,0.022,20.32,324.293,82.992,0.025,0.1,6.669,868.785,335.34,0.05,0.188,NaN
4.85,724.751,181.56,-18.178,182.92,18.208,80.811,0.018,80.811,0.013,22.259,1.034,36,-85.999,9.794,0.005,-4.661e-6,-0.315,0.008,2.62e4,2835,10.809,0.204,210.535,152.592,2.852,0.546,3.035e7,0,221.152,0.377,0.377,0.195,0.024,0.159,8.979e-4,0.003,1.496e-4,0,0,0,0,-1.607e-6,0.022,20.32,324.293,82.974,0.023,0.1,6.61,867.817,335.305,0.05,0.189,NaN
4.9,733.806,180.654,-18.076,182.014,18.106,81.923,0.019,81.923,0.013,22.207,1.04,36,-85.999,9.794,0.001,-2.619e-6,-0.252,-0.015,2.62e4,2835,10.809,0.204,210.527,152.592,2.851,0.543,3.018e7,0,218.505,0.377,0.377,0.195,0.024,0.158,1.698e-4,5.076e-4,2.527e-4,0,0,0,0,-1.033e-6,0.022,20.32,324.293,82.96,0.022,0.1,6.551,866.853,335.269,0.05,0.19,NaN
4.95,742.816,179.753,-17.974,181.113,18.005,83.032,0.019,83.032,0.013,22.155,1.049,36,-85.999,9.794,0.004,-2.76e-6,0.279,0.02,2.62e4,2835,10.809,0.204,210.507,152.592,2.85,0.54,3.001e7,0,215.895,0.376,0.376,0.195,0.023,0.158,7.231e-4,0.002,4.91e-4,0,0,0,0,1.285e-6,0.021,20.32,324.293,82.947,0.022,0.1,6.493,865.895,335.233,0.05,0.191,NaN
5,751.782,178.857,-17.875,180.217,17.906,84.138,0.02,84.138,0.013,22.102,1.047,36,-85.999,9.794,0.007,-2.77e-6,0.371,0.01,2.62e4,2835,10.809,0.204,210.489,152.592,2.849,0.538,2.984e7,0,213.32,0.376,0.376,0.195,0.023,0.158,0.001,0.003,-9.84e-5,0,0,0,0,2.287e-6,0.021,20.32,324.293,82.931,0.023,0.1,6.434,864.941,335.198,0.05,0.193,NaN
5.05,760.702,177.965,-17.78,179.326,17.81,85.242,0.02,85.242,0.014,22.05,1.03,36,-85.999,9.794,0.004,-1.356e-6,0.45,-0.005,2.62e4,2835,10.809,0.204,210.479,152.592,2.849,0.535,2.967e7,0,210.781,0.375,0.375,0.195,0.023,0.157,7.195e-4,0.002,1.326e-4,0,0,0,0,3.412e-6,0.021,20.32,324.293,82.91,0.023,0.1,6.376,863.992,335.163,0.05,0.194,NaN
5.1,769.578,177.079,-17.686,178.44,17.715,86.343,0.021,86.343,0.014,21.999,1.005,36,-85.999,9.794,1.921e-4,-2.742e-6,0,0,2.62e4,2835,10.809,0.204,210.471,152.592,2.848,0.532,2.95e7,0,208.275,0.375,0.375,0.195,0.023,0.157,3.167e-5,5.777e-4,-1.713e-5,0,0,0,0,0,0.021,20.32,324.293,82.886,0.025,0.1,6.319,863.048,335.128,0.05,0.195,NaN
5.15,778.41,176.196,-17.594,177.558,17.622,87.442,0.021,87.442,0.014,21.949,0.983,36,-85.999,9.794,0.004,-3.338e-6,-0.458,-0.022,2.62e4,2835,10.809,0.204,210.452,152.592,2.847,0.53,2.933e7,0,205.804,0.374,0.374,0.195,0.023,0.157,6.579e-4,0.001,-2.824e-4,0,0,0,0,-3.602e-6,0.021,20.32,324.293,82.862,0.026,0.1,6.261,862.109,335.093,0.05,0.196,NaN
5.2,787.198,175.319,-17.502,176.682,17.529,88.538,0.022,88.538,0.014,21.901,0.97,36,-85.999,9.794,0.005,-5.726e-6,-0.385,0.007,2.62e4,2835,10.809,0.204,210.437,152.592,2.847,0.527,2.917e7,0,203.366,0.374,0.374,0.195,0.023,0.156,8.625e-4,0.002,-3.347e-4,0,0,0,0,-2.566e-6,0.021,20.32,324.293,82.842,0.025,0.1,6.204,861.174,335.059,0.05,0.197,NaN
5.25,795.942,174.446,-17.41,175.81,17.436,89.632,0.022,89.632,0.014,21.852,0.968,36,-85.999,9.794,0.003,-3.875e-6,-0.331,-0.003,2.62e4,2835,10.809,0.204,210.427,152.592,2.846,0.525,2.9e7,0,200.961,0.374,0.374,0.195,0.023,0.156,5.137e-4,0.001,-1.504e-4,0,0,0,0,-1.919e-6,0.021,20.32,324.293,82.824,0.025,0.1,6.147,860.244,335.024,0.05,0.197,NaN
5.3,804.643,173.578,-17.318,174.942,17.345,90.723,0.022,90.723,0.014,21.804,0.973,36,-85.999,9.794,0.001,-7.365e-7,0.292,-0.111,2.62e4,2835,10.809,0.204,210.418,152.592,2.846,0.522,2.884e7,0,198.587,0.373,0.373,0.195,0.022,0.155,1.87e-4,6.321e-4,-3.41e-4,0,0,0,0,1.506e-6,0.021,20.32,324.293,82.809,0.026,0.1,6.091,859.318,334.99,0.05,0.198,NaN
5.35,813.3,172.715,-17.227,174.079,17.255,91.812,0.023,91.812,0.014,21.755,0.975,36,-85.999,9.794,0.005,-5.729e-6,0.353,0.023,2.62e4,2835,10.809,0.204,210.4,152.592,2.845,0.52,2.868e7,0,196.245,0.373,0.373,0.195,0.022,0.155,7.589e-4,0.002,-1.898e-4,0,0,0,0,2.221e-6,0.021,20.32,324.293,82.793,0.025,0.1,6.034,858.398,334.956,0.05,0.199,NaN
5.4,821.914,171.855,-17.139,173.221,17.166,92.899,0.023,92.899,0.014,21.706,0.968,36,-85.999,9.794,0.005,-2.496e-6,0.422,0.026,2.62e4,2835,10.809,0.204,210.388,152.592,2.844,0.517,2.852e7,0,193.934,0.372,0.372,0.195,0.022,0.155,8.595e-4,0.003,1.068e-4,0,0,0,0,3.207e-6,0.021,20.32,324.293,82.774,0.022,0.1,5.978,857.481,334.922,0.05,0.199,NaN
5.45,830.486,171.001,-17.053,172.367,17.08,93.983,0.024,93.983,0.015,21.658,0.951,36,-85.999,9.794,0.002,-1.402e-6,0.463,0.05,2.62e4,2835,10.809,0.204,210.38,152.592,2.844,0.515,2.835e7,0,191.653,0.372,0.372,0.195,0.022,0.154,3.917e-4,9.73e-4,-2.51e-4,0,0,0,0,3.898e-6,0.02,20.32,324.293,82.751,0.022,0.1,5.923,856.57,334.888,0.05,0.2,NaN
5.5,839.014,170.15,-16.969,171.517,16.995,95.065,0.024,95.065,0.015,21.611,0.933,36,-85.999,9.794,8.716e-4,-2.233e-6,-0.438,0.208,2.62e4,2835,10.809,0.204,210.371,152.592,2.843,0.512,2.819e7,0,189.402,0.372,0.372,0.195,0.022,0.154,1.433e-4,2.301e-4,1.975e-4,0,0,0,0,-3.524e-6,0.02,20.32,324.293,82.727,0.023,0.1,5.867,855.662,334.854,0.05,0.201,NaN
5.55,847.501,169.304,-16.886,170.672,16.911,96.144,0.025,96.144,0.015,21.565,0.915,36,-85.999,9.794,0.004,-2.943e-6,-0.439,0.016,2.62e4,2835,10.809,0.204,210.355,152.592,2.843,0.51,2.804e7,0,187.18,0.371,0.371,0.196,0.022,0.154,6.274e-4,0.002,-1.544e-4,0,0,0,0,-3.578e-6,0.02,20.32,324.293,82.704,0.025,0.1,5.812,854.76,334.821,0.05,0.202,NaN
5.6,855.945,168.461,-16.802,169.83,16.827,97.221,0.025,97.221,0.015,21.52,0.907,36,-85.999,9.794,0.004,-1.811e-6,-0.399,-0.032,2.62e4,2835,10.809,0.204,210.344,152.592,2.842,0.507,2.788e7,0,184.987,0.371,0.371,0.196,0.022,0.153,6.593e-4,0.002,2.935e-6,0,0,0,0,-2.987e-6,0.02,20.32,324.293,82.683,0.029,0.1,5.757,853.861,334.788,0.05,0.203,NaN
5.65,864.347,167.623,-16.719,168.993,16.744,98.296,0.026,98.296,0.015,21.474,0.904,36,-85.999,9.794,0.002,-4.431e-6,-0.346,-0.08,2.62e4,2835,10.809,0.204,210.336,152.592,2.842,0.505,2.772e7,0,182.822,0.37,0.37,0.196,0.022,0.153,3.602e-4,0.001,-5.426e-5,0,0,0,0,-2.269e-6,0.02,20.32,324.293,82.664,0.031,0.1,5.703,852.968,334.755,0.05,0.204,NaN
5.7,872.707,166.789,-16.637,168.16,16.661,99.369,0.026,99.369,0.015,21.429,0.907,36,-85.999,9.794,0.001,-4.753e-6,0.366,-0.013,2.62e4,2835,10.809,0.204,210.327,152.592,2.841,0.502,2.757e7,0,180.685,0.37,0.37,0.196,0.022,0.153,2.158e-4,6.14e-4,3.67e-5,0,0,0,0,2.56e-6,0.02,20.32,324.293,82.646,0.028,0.1,5.648,852.078,334.722,0.05,0.204,NaN
5.75,881.026,165.96,-16.556,167.332,16.58,100.439,0.027,100.439,0.015,21.384,0.905,36,-85.999,9.794,0.004,-4.693e-6,0.383,0.029,2.62e4,2835,10.809,0.204,210.314,152.592,2.841,0.5,2.741e7,0,178.575,0.37,0.37,0.196,0.021,0.152,5.992e-4,0.001,1.687e-4,0,0,0,0,2.826e-6,0.02,20.32,324.293,82.628,0.025,0.1,5.594,851.193,334.689,0.05,0.205,NaN
5.8,889.303,165.134,-16.476,166.507,16.501,101.507,0.027,101.507,0.015,21.339,0.898,36,-85.999,9.794,0.004,-1.65e-6,0.428,0.024,2.62e4,2835,10.809,0.204,210.304,152.592,2.84,0.498,2.726e7,0,176.492,0.369,0.369,0.196,0.021,0.152,6.33e-4,0.002,3.605e-5,0,0,0,0,3.565e-6,0.02,20.32,324.293,82.607,0.025,0.1,5.54,850.313,334.656,0.05,0.206,NaN
5.85,897.539,164.312,-16.399,165.686,16.423,102.573,0.028,102.573,0.016,21.294,0.886,36,-85.999,9.794,0.002,-3.11e-6,0.472,0.065,2.62e4,2835,10.809,0.204,210.296,152.592,2.84,0.495,2.71e7,0,174.436,0.369,0.369,0.196,0.021,0.152,4.05e-4,0.002,-1.211e-5,0,0,0,0,4.387e-6,0.02,20.32,324.293,82.584,0.026,0.1,5.487,849.437,334.624,0.05,0.207,NaN
5.9,905.734,163.494,-16.322,164.869,16.346,103.637,0.028,103.637,0.016,21.25,0.871,36,-85.999,9.794,8.186e-5,-1.808e-6,0,0,2.62e4,2835,10.809,0.204,210.29,152.592,2.839,0.493,2.695e7,0,172.405,0.369,0.369,0.196,0.021,0.152,1.343e-5,1.297e-4,4.663e-4,0,0,0,0,0,0.02,20.32,324.293,82.56,0.027,0.1,5.434,848.565,334.592,0.05,0.207,NaN
5.95,913.889,162.68,-16.247,164.056,16.27,104.698,0.029,104.698,0.016,21.207,0.858,36,-85.999,9.794,0.002,-3.132e-6,-0.467,0.052,2.62e4,2835,10.809,0.204,210.277,152.592,2.839,0.49,2.68e7,0,170.4,0.368,0.368,0.196,0.021,0.151,3.783e-4,8.997e-4,2.845e-4,0,0,0,0,-4.374e-6,0.019,20.32,324.293,82.536,0.027,0.1,5.381,847.698,334.56,0.05,0.208,NaN
6,922.003,161.869,-16.172,163.247,16.194,105.757,0.029,105.757,0.016,21.164,0.85,36,-85.999,9.794,0.003,-2.442e-6,-0.439,0.035,2.62e4,2835,10.809,0.204,210.267,152.592,2.838,0.488,2.665e7,0,168.42,0.368,0.368,0.196,0.021,0.151,4.228e-4,0.001,2.48e-4,0,0,0,0,-3.91e-6,0.019,20.32,324.293,82.513,0.026,0.1,5.328,846.835,334.528,0.05,0.209,NaN
6.05,930.076,161.063,-16.097,162.442,16.119,106.814,0.03,106.814,0.016,21.122,0.844,36,-85.999,9.794,0.002,-6.113e-6,-0.395,0.136,2.62e4,2835,10.809,0.204,210.258,152.592,2.838,0.486,2.65e7,0,166.465,0.368,0.368,0.196,0.021,0.151,3.248e-4,0.001,-1.27e-4,0,0,0,0,-3.199e-6,0.019,20.32,324.293,82.492,0.026,0.1,5.275,845.976,334.496,0.05,0.21,NaN
6.1,938.109,160.26,-16.023,161.64,16.045,107.869,0.031,107.869,0.016,21.08,0.842,36,-85.999,9.794,1.094e-4,-5.833e-7,0,0,2.62e4,2835,10.809,0.204,210.252,152.592,2.838,0.483,2.635e7,0,164.537,0.367,0.367,0.196,0.021,0.15,1.793e-5,-4.405e-4,2.064e-4,0,0,0,0,0,0.019,20.32,324.293,82.471,0.028,0.1,5.223,845.143,334.464,0.05,0.211,NaN
6.15,946.102,159.46,-15.95,160.842,15.972,108.922,0.031,108.922,0.016,21.038,0.84,36,-85.999,9.794,0.002,-1.21e-6,0.419,-0.047,2.62e4,2835,10.809,0.204,210.24,152.592,2.837,0.481,2.621e7,0,162.638,0.367,0.367,0.196,0.021,0.15,3.228e-4,0.001,-1.296e-7,0,0,0,0,3.672e-6,0.019,20.32,324.293,82.451,0.03,0.1,5.171,844.334,334.433,0.05,0.211,NaN
6.2,954.055,158.665,-15.879,160.048,15.901,109.973,0.032,109.973,0.016,20.996,0.834,36,-85.999,9.794,0.003,0,0.431,-0.076,2.62e4,2835,10.809,0.204,210.23,152.592,2.837,0.479,2.606e7,0,160.761,0.366,0.366,0.196,0.021,0.15,4.214e-4,7.439e-4,-2.559e-4,0,0,0,0,3.923e-6,0.019,20.32,324.293,82.429,0.031,0.1,5.12,843.529,334.401,0.05,0.212,NaN
6.25,961.968,157.872,-15.808,159.257,15.83,111.022,0.032,111.022,0.017,20.954,0.828,36,-85.999,9.794,0.003,-3.46e-6,0.466,-0.039,2.62e4,2835,10.809,0.204,210.22,152.592,2.836,0.476,2.592e7,0,158.908,0.366,0.366,0.196,0.02,0.149,4.742e-4,0.001,3.149e-4,0,0,0,0,4.625e-6,0.019,20.32,324.293,82.407,0.031,0.1,5.068,842.728,334.37,0.05,0.213,NaN
6.3,969.842,157.084,-15.739,158.47,15.76,112.069,0.033,112.069,0.017,20.913,0.817,36,-85.999,9.793,0.002,-4.639e-6,0.476,-0.138,2.62e4,2835,10.809,0.204,210.213,152.592,2.836,0.474,2.577e7,0,157.077,0.366,0.366,0.196,0.02,0.149,2.462e-4,5.266e-4,2.362e-4,0,0,0,0,4.874e-6,0.019,20.32,324.293,82.382,0.033,0.1,5.017,841.931,334.339,0.05,0.213,NaN
6.35,977.677,156.298,-15.671,157.686,15.691,113.113,0.033,113.113,0.017,20.873,0.806,36,-85.999,9.793,5.362e-4,-1.84e-6,-0.128,-0.489,2.62e4,2835,10.809,0.204,210.206,152.592,2.835,0.472,2.563e7,0,155.268,0.365,0.365,0.196,0.02,0.149,8.78e-5,1.791e-4,-1.852e-4,0,0,0,0,-3.545e-7,0.019,20.32,324.293,82.357,0.033,0.1,4.966,841.138,334.308,0.05,0.214,NaN
6.4,985.472,155.517,-15.603,156.906,15.624,114.156,0.034,114.156,0.017,20.833,0.796,36,-85.999,9.793,0.002,-6.353e-6,-0.497,-0.048,2.62e4,2835,10.809,0.204,210.195,152.592,2.835,0.469,2.549e7,0,153.481,0.365,0.365,0.196,0.02,0.149,2.906e-4,0.001,-3.523e-4,0,0,0,0,-5.436e-6,0.019,20.32,324.293,82.332,0.033,0.1,4.915,840.349,334.278,0.05,0.215,NaN
6.45,993.228,154.738,-15.536,156.129,15.556,115.197,0.034,115.197,0.017,20.793,0.788,36,-85.999,9.793,0.002,-4.683e-6,-0.464,-0.04,2.62e4,2835,10.809,0.204,210.186,152.592,2.834,0.467,2.535e7,0,151.715,0.365,0.365,0.196,0.02,0.148,3.709e-4,0.001,2.601e-4,0,0,0,0,-4.778e-6,0.019,20.32,324.293,82.308,0.032,0.1,4.865,839.564,334.247,0.05,0.216,NaN
6.5,1000.946,153.963,-15.47,155.355,15.489,116.235,0.035,116.235,0.017,20.754,0.783,36,-85.999,9.793,0.001,-6.819e-6,-0.435,0.099,2.62e4,2835,10.809,0.204,210.179,152.592,2.834,0.465,2.52e7,0,149.97,0.364,0.364,0.196,0.02,0.148,2.311e-4,8.724e-4,-1.26e-4,0,0,0,0,-4.237e-6,0.018,20.32,324.293,82.285,0.029,0.1,4.815,838.783,334.217,0.05,0.217,NaN
6.55,1008.625,153.191,-15.403,154.585,15.423,117.272,0.035,117.272,0.017,20.715,0.782,36,-85.999,9.793,7.124e-4,-2.326e-6,0.416,0.15,2.62e4,2835,10.809,0.204,210.171,152.592,2.834,0.463,2.506e7,0,148.246,0.364,0.364,0.196,0.02,0.148,1.165e-4,4.252e-5,-4.359e-4,0,0,0,0,3.919e-6,0.018,20.32,324.293,82.263,0.028,0.1,4.765,838.005,334.186,0.05,0.218,NaN
6.6,1016.265,152.423,-15.338,153.819,15.358,118.307,0.036,118.307,0.017,20.676,0.779,36,-85.999,9.793,0.003,-2.485e-6,0.436,0.096,2.62e4,2835,10.809,0.204,210.16,152.592,2.833,0.46,2.492e7,0,146.542,0.364,0.364,0.197,0.02,0.148,4.132e-4,0.002,3.038e-4,0,0,0,0,4.354e-6,0.018,20.32,324.293,82.241,0.027,0.1,4.715,837.232,334.156,0.05,0.219,NaN
6.65,1023.867,151.657,-15.274,153.055,15.293,119.34,0.037,119.34,0.018,20.637,0.776,36,-85.999,9.793,0.004,-4.253e-6,0.477,0.031,2.62e4,2835,10.809,0.204,210.15,152.592,2.833,0.458,2.479e7,0,144.859,0.364,0.364,0.197,0.02,0.147,5.85e-4,0.001,-3.452e-4,0,0,0,0,5.247e-6,0.018,20.32,324.293,82.218,0.029,0.1,4.666,836.463,334.126,0.05,0.219,NaN
6.7,1031.431,150.895,-15.211,152.295,15.23,120.37,0.037,120.37,0.018,20.598,0.768,36,-85.999,9.793,0.003,-4.757e-6,0.522,-0.014,2.62e4,2835,10.809,0.204,210.143,152.592,2.832,0.456,2.465e7,0,143.195,0.363,0.363,0.197,0.02,0.147,5.097e-4,0.001,1.051e-4,0,0,0,0,6.352e-6,0.018,20.32,324.293,82.193,0.033,0.1,4.617,835.697,334.097,0.05,0.22,NaN
6.75,1038.957,150.136,-15.149,151.537,15.167,121.399,0.038,121.399,0.018,20.56,0.758,36,-85.999,9.793,0.002,0,0.487,-0.215,2.62e4,2835,10.809,0.204,210.137,152.592,2.832,0.454,2.451e7,0,141.551,0.363,0.363,0.197,0.02,0.147,2.574e-4,0.001,3.092e-4,0,0,0,0,5.587e-6,0.018,20.32,324.293,82.166,0.035,0.1,4.568,834.935,334.067,0.05,0.221,NaN
6.8,1046.445,149.38,-15.087,150.783,15.106,122.426,0.038,122.426,0.018,20.522,0.746,36,-85.999,9.793,9.97e-4,-6.145e-6,-0.47,-0.28,2.62e4,2835,10.809,0.204,210.129,152.592,2.832,0.451,2.437e7,0,139.926,0.363,0.363,0.197,0.019,0.146,1.629e-4,7.992e-4,-2.667e-4,0,0,0,0,-5.262e-6,0.018,20.32,324.293,82.139,0.037,0.1,4.519,834.177,334.037,0.05,0.222,NaN
6.85,1053.895,148.628,-15.027,150.033,15.045,123.452,0.039,123.452,0.018,20.485,0.736,36,-85.999,9.793,0.003,-5.21e-6,-0.517,-0.098,2.62e4,2835,10.809,0.204,210.119,152.592,2.831,0.449,2.424e7,0,138.32,0.362,0.362,0.197,0.019,0.146,4.442e-4,0.002,4.61e-4,0,0,0,0,-6.431e-6,0.018,20.32,324.293,82.112,0.037,0.1,4.471,833.423,334.008,0.05,0.223,NaN
6.9,1061.307,147.878,-14.967,149.285,14.984,124.475,0.039,124.475,0.018,20.449,0.729,36,-85.999,9.793,0.003,-2.965e-6,-0.502,-0.047,2.62e4,2835,10.809,0.204,210.111,152.592,2.831,0.447,2.41e7,0,136.733,0.362,0.362,0.197,0.019,0.146,4.721e-4,0.001,1.621e-4,0,0,0,0,-6.114e-6,0.018,20.32,324.293,82.086,0.034,0.1,4.422,832.673,333.979,0.05,0.223,NaN
6.95,1068.683,147.131,-14.907,148.54,14.924,125.496,0.04,125.496,0.018,20.412,0.726,36,-85.999,9.793,0.002,-4.953e-6,-0.462,0.119,2.62e4,2835,10.809,0.204,210.104,152.592,2.83,0.445,2.397e7,0,135.164,0.362,0.362,0.197,0.019,0.146,3.141e-4,0.001,4.796e-4,0,0,0,0,-5.224e-6,0.018,20.32,324.293,82.061,0.03,0.1,4.374,831.927,333.95,0.05,0.224,NaN
7,1076.021,146.387,-14.847,147.798,14.865,126.516,0.041,126.516,0.018,20.376,0.724,36,-85.999,9.793,8.882e-4,-3.386e-6,0.096,0.473,2.62e4,2835,10.809,0.204,210.098,152.592,2.83,0.443,2.384e7,0,133.613,0.361,0.361,0.197,0.019,0.145,1.45e-4,-3.646e-5,3.373e-4,0,0,0,0,2.301e-7,0.018,20.32,324.293,82.038,0.027,0.1,4.327,831.184,333.921,0.05,0.225,NaN
7.05,1083.321,145.646,-14.788,147.06,14.806,127.534,0.041,127.534,0.019,20.34,0.723,36,-85.999,9.793,0.002,-4.417e-6,0.465,0.166,2.62e4,2835,10.809,0.204,210.088,152.592,2.83,0.44,2.37e7,0,132.079,0.361,0.361,0.197,0.019,0.145,4.025e-4,0.001,-7.66e-5,0,0,0,0,5.416e-6,0.017,20.32,324.293,82.014,0.027,0.1,4.279,830.445,333.892,0.05,0.226,NaN
7.1,1090.585,144.908,-14.73,146.324,14.748,128.55,0.042,128.55,0.019,20.304,0.719,36,-85.999,9.793,0.003,-1.935e-6,0.512,0.044,2.62e4,2835,10.809,0.204,210.079,152.592,2.829,0.438,2.357e7,0,130.564,0.361,0.361,0.197,0.019,0.145,5.263e-4,0.002,3.531e-4,0,0,0,0,6.623e-6,0.017,20.32,324.293,81.988,0.031,0.1,4.232,829.71,333.864,0.05,0.227,NaN
7.15,1097.812,144.173,-14.673,145.591,14.691,129.564,0.042,129.564,0.019,20.268,0.713,36,-85.999,9.793,0.003,-1.042e-6,0.544,-0.097,2.62e4,2835,10.809,0.204,210.071,152.592,2.829,0.436,2.344e7,0,129.065,0.361,0.361,0.197,0.019,0.145,5.144e-4,0.002,2.643e-4,0,0,0,0,7.546e-6,0.017,20.32,324.293,81.962,0.037,0.1,4.185,828.978,333.835,0.05,0.227,NaN
7.2,1105.003,143.441,-14.617,144.861,14.634,130.577,0.043,130.577,0.019,20.233,0.704,36,-85.999,9.793,0.002,-3.744e-6,0.511,-0.267,2.62e4,2835,10.809,0.204,210.066,152.592,2.828,0.434,2.331e7,0,127.584,0.36,0.36,0.197,0.019,0.144,3.209e-4,0.001,-1.491e-4,0,0,0,0,6.719e-6,0.017,20.32,324.293,81.934,0.041,0.1,4.138,828.25,333.807,0.05,0.228,NaN
