# Time (s),Altitude (m),Vertical velocity (m/s),Vertical acceleration (m/s²),Total velocity (m/s),Total acceleration (m/s²),Position East of launch (m),Position North of launch (m),Lateral distance (m),Lateral direction (°),Lateral velocity (m/s),Lateral acceleration (m/s²),Latitude (°),Longitude (°),Gravitational acceleration (m/s²),Angle of attack (°),Roll rate (°/s),Pitch rate (°/s),Yaw rate (°/s),Mass (g),Motor mass (g),Longitudinal moment of inertia (kg·m²),Rotational moment of inertia (kg·m²),CP location (cm),CG location (cm),Stability margin calibers (​),Mach number (​),Reynolds number (​),Thrust (N),Drag force (N),Drag coefficient (​),Axial drag coefficient (​),Friction drag coefficient (​),Pressure drag coefficient (​),Base drag coefficient (​),Normal force coefficient (​),Pitch moment coefficient (​),Yaw moment coefficient (​),Side force coefficient (​),Roll moment coefficient (​),Roll forcing coefficient (​),Roll damping coefficient (​),Pitch damping coefficient (​),Coriolis acceleration (m/s²),Reference length (cm),Reference area (cm²),Vertical orientation (zenith) (°),Lateral orientation (azimuth) (°),Wind velocity (m/s),Air temperature (°C),Air pressure (mbar),Speed of sound (m/s),Simulation time step (s),Computation time (s),Dynamic Pressure (mbar)
0.01,-3.863e-4,-0.077,-7.726,0.078,7.755,-3.38e-5,0,3.38e-5,180,0.007,0.676,48.476,-80.44,9.808,124.646,0,0,0,5.702e4,1.741e4,56.395,0.268,NaN,250.212,NaN,3.533e-4,3.2e4,114.957,-7.385e-5,1.292,-0.463,1.181,0.01,0.101,NaN,NaN,NaN,NaN,NaN,NaN,NaN,NaN,7.535e-6,15.24,182.415,85,0,0.1,18.861,1000.508,342.729,0.01,0.007,3.59e-5
0.02,-1.854e-4,-0.037,-3.706,0.037,3.72,-1.622e-5,0,1.622e-5,180,0.003,0.324,48.476,-80.44,9.808,105.965,0,0,0,5.699e4,1.738e4,56.403,0.268,NaN,250.27,NaN,3.023e-4,2.738e4,344.87,-7.172e-6,1.35,-0.061,1.238,0.01,0.101,NaN,NaN,NaN,NaN,NaN,NaN,NaN,NaN,3.615e-6,15.24,182.415,85,0,0.1,18.861,1000.508,342.729,0.01,0.007,8.267e-6
0.03,1.575e-5,0.003,0.319,0.003,0.32,1.378e-6,0,1.378e-6,0,2.763e-4,0.028,48.476,-80.44,9.808,83.196,0,0,0,5.696e4,1.735e4,56.412,0.267,NaN,250.328,NaN,2.927e-4,2.651e4,574.783,5.845e-7,1.362,0.005,1.251,0.01,0.101,NaN,NaN,NaN,NaN,NaN,NaN,NaN,NaN,3.08e-7,15.24,182.415,85,0,0.1,18.861,1000.508,342.729,0.01,0.008,6.001e-8
0.04,0.001,0.294,29.063,0.295,29.174,1.312e-4,0,1.312e-4,0,0.026,2.543,48.476,-80.44,9.808,18.173,0,0,0,5.691e4,1.731e4,56.424,0.267,NaN,250.413,NaN,9.319e-4,8.44e4,2216.543,0.001,1.01,1.311,0.899,0.01,0.101,NaN,NaN,NaN,NaN,NaN,NaN,NaN,NaN,2.864e-5,15.24,182.415,85,0,0.1,18.861,1000.508,342.729,0.01,0.008,5.186e-4
0.05,0.009,1.119,82.586,1.123,82.902,7.491e-4,0,7.491e-4,0,0.098,7.225,48.476,-80.44,9.808,5.029,0,0,0,5.687e4,1.726e4,56.437,0.267,NaN,250.497,NaN,0.003,3.003e5,5270.148,0.012,0.772,0.82,0.66,0.01,0.101,NaN,NaN,NaN,NaN,NaN,NaN,NaN,NaN,1.091e-4,15.24,182.415,85,0,0.1,18.861,1000.508,342.729,0.01,0.009,0.008
0.06,0.025,2.251,113.264,2.26,113.697,0.002,0,0.002,0,0.197,9.909,48.476,-80.44,9.808,2.514,0,0,0,5.684e4,1.723e4,56.445,0.267,NaN,250.551,NaN,0.007,6.001e5,7017.697,0.039,0.68,0.692,0.568,0.01,0.101,NaN,NaN,NaN,NaN,NaN,NaN,NaN,NaN,2.196e-4,15.24,182.415,85,0,0.1,18.861,1000.507,342.729,0.01,0.009,0.03
0.07,0.054,3.462,121.072,3.475,121.534,0.005,0,0.005,0,0.303,10.592,48.476,-80.44,9.808,1.638,0,0,0,5.681e4,1.72e4,56.453,0.267,NaN,250.605,NaN,0.01,9.21e5,7459.19,0.084,0.632,0.637,0.521,0.01,0.101,NaN,NaN,NaN,NaN,NaN,NaN,NaN,NaN,3.376e-4,15.24,182.415,85,0,0.1,18.861,1000.505,342.729,0.01,0.009,0.072
0.08,0.095,4.75,128.888,4.768,129.38,0.008,0,0.008,0,0.416,11.276,48.476,-80.44,9.808,1.195,0,0,0,5.678e4,1.717e4,56.462,0.267,NaN,250.659,NaN,0.014,1.263e6,7900.683,0.15,0.601,0.603,0.489,0.01,0.101,NaN,NaN,NaN,NaN,NaN,NaN,NaN,NaN,4.633e-4,15.24,182.415,85,0,0.1,18.861,1000.503,342.729,0.01,0.01,0.136
0.09,0.149,6.068,131.826,6.091,132.33,0.013,0,0.013,0,0.531,11.533,48.476,-80.44,9.808,0.936,0,0,0,5.673e4,1.712e4,56.48,0.267,NaN,250.76,NaN,0.018,1.612e6,8061.78,0.235,0.578,0.58,0.467,0.01,0.101,NaN,NaN,NaN,NaN,NaN,NaN,NaN,NaN,5.918e-4,15.24,182.415,85,0,0.1,18.861,1000.501,342.728,0.01,0.01,0.221
0.1,0.216,7.366,129.842,7.394,130.338,0.019,0,0.019,0,0.644,11.36,48.476,-80.44,9.808,0.771,0,0,0,5.669e4,1.708e4,56.498,0.267,NaN,250.86,NaN,0.022,1.956e6,7942.48,0.336,0.562,0.563,0.45,0.011,0.101,NaN,NaN,NaN,NaN,NaN,NaN,NaN,NaN,7.183e-4,15.24,182.415,85,0,0.1,18.86,1000.498,342.728,0.01,0.011,0.326
0.11,0.296,8.647,128.151,8.68,128.64,0.026,0,0.026,0,0.757,11.212,48.476,-80.44,9.808,0.657,0,0,0,5.666e4,1.705e4,56.517,0.267,NaN,250.952,NaN,0.025,2.296e6,7842.183,0.451,0.549,0.549,0.437,0.011,0.101,NaN,NaN,NaN,NaN,NaN,NaN,NaN,NaN,8.433e-4,15.24,182.415,85,0,0.1,18.86,1000.494,342.728,0.01,0.011,0.45
0.12,0.389,9.915,126.792,9.952,127.276,0.034,0,0.034,0,0.867,11.093,48.476,-80.44,9.808,0.573,0,0,0,5.663e4,1.702e4,56.536,0.267,NaN,251.044,NaN,0.029,2.632e6,7760.89,0.582,0.538,0.538,0.426,0.011,0.101,NaN,NaN,NaN,NaN,NaN,NaN,NaN,NaN,9.669e-4,15.24,182.415,85,0,0.1,18.86,1000.489,342.728,0.01,0.011,0.591
0.13,0.495,11.169,125.431,11.211,125.91,0.043,0,0.043,0,0.977,10.974,48.476,-80.44,9.808,0.509,0,0,0,5.659e4,1.699e4,56.555,0.267,NaN,251.135,NaN,0.033,2.965e6,7679.597,0.725,0.529,0.529,0.417,0.011,0.101,NaN,NaN,NaN,NaN,NaN,NaN,NaN,NaN,0.001,15.24,182.415,85,0,0.1,18.86,1000.484,342.728,0.01,0.012,0.75
0.14,0.612,12.413,124.46,12.46,124.936,0.054,0,0.054,0,1.086,10.889,48.476,-80.44,9.808,0.458,0,0,0,5.655e4,1.694e4,56.567,0.266,NaN,251.206,NaN,0.036,3.295e6,7618.525,0.882,0.521,0.521,0.41,0.011,0.101,NaN,NaN,NaN,NaN,NaN,NaN,NaN,NaN,0.001,15.24,182.415,85,0,0.1,18.859,1000.479,342.728,0.01,0.012,0.927
0.15,0.743,13.651,123.844,13.703,124.317,0.065,0,0.065,0,1.194,10.835,48.476,-80.44,9.808,0.416,0,0,0,5.65e4,1.69e4,56.578,0.266,NaN,251.277,NaN,0.04,3.623e6,7577.675,1.053,0.514,0.515,0.403,0.011,0.101,NaN,NaN,NaN,NaN,NaN,NaN,NaN,NaN,0.001,15.24,182.415,85,0,0.1,18.859,1000.472,342.727,0.01,0.013,1.121
0.16,0.885,14.877,122.663,14.934,123.132,0.077,0,0.077,0,1.302,10.732,48.476,-80.44,9.808,0.382,0,0,0,5.647e4,1.687e4,56.586,0.266,NaN,251.323,NaN,0.044,3.949e6,7506.915,1.236,0.508,0.509,0.397,0.011,0.101,NaN,NaN,NaN,NaN,NaN,NaN,NaN,NaN,0.001,15.24,182.415,85,0,0.1,18.858,1000.465,342.727,0.01,0.013,1.331
0.17,1.04,16.086,120.953,16.148,121.415,0.091,0,0.091,0,1.407,10.582,48.476,-80.44,9.808,0.353,0,0,0,5.644e4,1.684e4,56.594,0.266,NaN,251.369,NaN,0.047,4.269e6,7406.245,1.43,0.503,0.503,0.391,0.011,0.101,NaN,NaN,NaN,NaN,NaN,NaN,NaN,NaN,0.002,15.24,182.415,85,0,0.1,18.858,1000.458,342.727,0.01,0.014,1.556
0.18,1.207,17.278,119.241,17.344,119.697,0.106,0,0.106,0,1.512,10.432,48.476,-80.44,9.808,0.329,0,0,0,5.642e4,1.681e4,56.602,0.266,NaN,251.414,NaN,0.051,4.585e6,7305.575,1.634,0.498,0.498,0.386,0.011,0.101,NaN,NaN,NaN,NaN,NaN,NaN,NaN,NaN,0.002,15.24,182.415,85,0,0.1,18.858,1000.45,342.727,0.01,0.014,1.796
0.19,1.386,18.459,118.15,18.53,118.601,0.121,0,0.121,0,1.615,10.337,48.476,-80.44,9.808,0.308,0,0,0,5.637e4,1.676e4,56.613,0.266,NaN,251.481,NaN,0.054,4.899e6,7238.27,1.848,0.494,0.494,0.382,0.011,0.101,NaN,NaN,NaN,NaN,NaN,NaN,NaN,NaN,0.002,15.24,182.415,85,0,0.1,18.857,1000.441,342.726,0.01,0.014,2.049
0.2,1.576,19.635,117.647,19.71,118.096,0.138,0,0.138,0,1.718,10.293,48.476,-80.44,9.808,0.289,0,0,0,5.633e4,1.672e4,56.624,0.266,NaN,251.547,NaN,0.058,5.211e6,7204.33,2.074,0.49,0.49,0.378,0.011,0.101,NaN,NaN,NaN,NaN,NaN,NaN,NaN,NaN,0.002,15.24,182.415,85,0,0.1,18.856,1000.432,342.726,0.01,0.015,2.319
0.21,1.778,20.806,117.119,20.886,117.566,0.156,0,0.156,0,1.82,10.247,48.476,-80.44,9.808,0.273,0,0,0,5.63e4,1.669e4,56.632,0.266,NaN,251.59,NaN,0.061,5.521e6,7170.967,2.312,0.486,0.486,0.374,0.011,0.101,NaN,NaN,NaN,NaN,NaN,NaN,NaN,NaN,0.002,15.24,182.415,85,0,0.1,18.856,1000.422,342.726,0.01,0.015,2.604
0.22,1.992,21.972,116.601,22.056,117.046,0.174,0,0.174,0,1.922,10.201,48.476,-80.44,9.808,0.259,0,0,0,5.627e4,1.666e4,56.64,0.266,NaN,251.633,NaN,0.064,5.83e6,7138.18,2.56,0.483,0.483,0.371,0.011,0.101,NaN,NaN,NaN,NaN,NaN,NaN,NaN,NaN,0.002,15.24,182.415,85,0,0.1,18.855,1000.412,342.725,0.01,0.016,2.903
0.23,2.218,23.132,116.082,23.221,116.525,0.194,0,0.194,0,2.024,10.156,48.476,-80.44,9.808,0.246,0,0,0,5.624e4,1.663e4,56.647,0.266,NaN,251.676,NaN,0.068,6.138e6,7105.393,2.819,0.48,0.48,0.368,0.011,0.101,NaN,NaN,NaN,NaN,NaN,NaN,NaN,NaN,0.002,15.24,182.415,85,0,0.1,18.855,1000.401,342.725,0.01,0.016,3.218
0.24,2.455,24.284,115.226,24.377,115.666,0.215,0,0.215,0,2.125,10.081,48.476,-80.44,9.808,0.234,0,0,0,5.619e4,1.658e4,56.653,0.266,NaN,251.721,NaN,0.071,6.443e6,7051.807,3.087,0.477,0.477,0.365,0.011,0.101,NaN,NaN,NaN,NaN,NaN,NaN,NaN,NaN,0.002,15.24,182.415,85,0,0.1,18.854,1000.39,342.724,0.01,0.017,3.547
0.25,2.703,25.424,113.999,25.521,114.435,0.237,0,0.237,0,2.224,9.974,48.476,-80.44,9.808,0.224,0,0,0,5.615e4,1.654e4,56.659,0.265,NaN,251.765,NaN,0.074,6.746e6,6977.422,3.364,0.474,0.474,0.362,0.011,0.101,NaN,NaN,NaN,NaN,NaN,NaN,NaN,NaN,0.002,15.24,182.415,85,0,0.1,18.853,1000.378,342.724,0.01,0.018,3.887
0.26,2.963,26.552,112.868,26.653,113.299,0.259,0,0.259,0,2.323,9.875,48.476,-80.44,9.808,0.214,0,0,0,5.612e4,1.651e4,56.663,0.265,NaN,251.794,NaN,0.078,7.045e6,6910.355,3.65,0.472,0.472,0.359,0.011,0.101,NaN,NaN,NaN,NaN,NaN,NaN,NaN,NaN,0.003,15.24,182.415,85,0,0.1,18.852,1000.365,342.723,0.01,0.018,4.24
0.27,3.234,27.67,111.865,27.776,112.293,0.283,0,0.283,0,2.421,9.787,48.476,-80.44,9.808,0.205,0,0,0,5.609e4,1.648e4,56.666,0.265,NaN,251.822,NaN,0.081,7.341e6,6850.605,3.944,0.469,0.469,0.357,0.011,0.102,NaN,NaN,NaN,NaN,NaN,NaN,NaN,NaN,0.003,15.24,182.415,85,0,0.1,18.852,1000.352,342.723,0.01,0.019,4.605
0.28,3.517,28.779,110.862,28.889,111.285,0.308,0,0.308,0,2.518,9.699,48.476,-80.44,9.808,0.198,0,0,0,5.606e4,1.645e4,56.67,0.265,NaN,251.851,NaN,0.084,7.635e6,6790.855,4.245,0.467,0.467,0.354,0.011,0.102,NaN,NaN,NaN,NaN,NaN,NaN,NaN,NaN,0.003,15.24,182.415,85,0,0.1,18.851,1000.339,342.722,0.01,0.02,4.981
0.29,3.81,29.883,110.527,29.998,110.949,0.333,0,0.333,0,2.614,9.67,48.476,-80.44,9.808,0.19,0,0,0,5.602e4,1.641e4,56.676,0.265,NaN,251.893,NaN,0.088,7.928e6,6767.077,4.557,0.465,0.465,0.352,0.011,0.102,NaN,NaN,NaN,NaN,NaN,NaN,NaN,NaN,0.003,15.24,182.415,85,0,0.1,18.85,1000.325,342.722,0.01,0.021,5.371
0.3,4.114,30.991,110.832,31.11,111.255,0.36,0,0.36,0,2.711,9.697,48.476,-80.44,9.808,0.183,0,0,0,5.597e4,1.637e4,56.682,0.265,NaN,251.935,NaN,0.091,8.222e6,6779.273,4.879,0.463,0.463,0.35,0.011,0.102,NaN,NaN,NaN,NaN,NaN,NaN,NaN,NaN,0.003,15.24,182.415,85,0,0.1,18.849,1000.31,342.721,0.01,0.021,5.776
0.31,4.43,32.092,110.047,32.214,110.467,0.388,0,0.388,0,2.808,9.628,48.476,-80.44,9.808,0.177,0,0,0,5.595e4,1.634e4,56.682,0.265,NaN,251.951,NaN,0.094,8.514e6,6732.02,5.21,0.461,0.461,0.348,0.011,0.102,NaN,NaN,NaN,NaN,NaN,NaN,NaN,NaN,0.003,15.24,182.415,85,0,0.1,18.848,1000.295,342.721,0.01,0.022,6.193
0.32,4.756,33.173,108.202,33.3,108.615,0.416,0,0.416,0,2.902,9.466,48.476,-80.44,9.808,0.171,0,0,0,5.592e4,1.631e4,56.682,0.265,NaN,251.966,NaN,0.097,8.801e6,6625.32,5.545,0.459,0.459,0.346,0.011,0.102,NaN,NaN,NaN,NaN,NaN,NaN,NaN,NaN,0.003,15.24,182.415,85,0,0.1,18.847,1000.279,342.72,0.01,0.022,6.618
0.33,5.093,34.237,106.355,34.367,106.761,0.446,0,0.446,0,2.995,9.305,48.476,-80.44,9.808,0.166,0,0,0,5.589e4,1.628e4,56.682,0.265,NaN,251.981,NaN,0.1,9.082e6,6518.62,5.885,0.457,0.457,0.344,0.011,0.102,NaN,NaN,NaN,NaN,NaN,NaN,NaN,NaN,0.003,15.24,182.415,85,0,0.1,18.846,1000.263,342.72,0.01,0.023,7.049
0.34,5.441,35.278,104.155,35.412,104.553,0.476,0,0.476,0,3.086,9.112,48.476,-80.44,9.808,0.161,0,0,0,5.584e4,1.624e4,56.688,0.265,NaN,252.021,NaN,0.103,9.359e6,6390.632,6.226,0.456,0.456,0.343,0.011,0.102,NaN,NaN,NaN,NaN,NaN,NaN,NaN,NaN,0.003,15.24,182.415,85,0,0.1,18.845,1000.246,342.719,0.01,0.023,7.484
0.35,5.799,36.293,101.572,36.432,101.96,0.507,0,0.507,0,3.175,8.886,48.476,-80.44,9.808,0.157,0,0,0,5.58e4,1.619e4,56.694,0.265,NaN,252.061,NaN,0.106,9.628e6,6241.357,6.568,0.454,0.454,0.341,0.011,0.102,NaN,NaN,NaN,NaN,NaN,NaN,NaN,NaN,0.004,15.24,182.415,85,0,0.1,18.844,1000.229,342.718,0.01,0.024,7.921
0.36,6.167,37.295,100.24,37.438,100.623,0.54,0,0.54,0,3.263,8.77,48.476,-80.44,9.808,0.152,0,0,0,5.577e4,1.616e4,56.697,0.264,NaN,252.087,NaN,0.109,9.893e6,6163.942,6.914,0.453,0.453,0.34,0.011,0.102,NaN,NaN,NaN,NaN,NaN,NaN,NaN,NaN,0.004,15.24,182.415,85,0,0.1,18.843,1000.212,342.718,0.01,0.025,8.364
0.37,6.544,38.297,100.191,38.443,100.574,0.573,0,0.573,0,3.351,8.766,48.476,-80.44,9.808,0.148,0,0,0,5.574e4,1.614e4,56.701,0.264,NaN,252.113,NaN,0.112,1.016e7,6158.385,7.268,0.452,0.452,0.338,0.011,0.102,NaN,NaN,NaN,NaN,NaN,NaN,NaN,NaN,0.004,15.24,182.415,85,0,0.1,18.842,1000.193,342.717,0.01,0.026,8.819
0.38,6.932,39.298,100.142,39.448,100.524,0.607,0,0.607,0,3.438,8.761,48.476,-80.44,9.808,0.145,0,0,0,5.572e4,1.611e4,56.705,0.264,NaN,252.139,NaN,0.115,1.042e7,6152.828,7.631,0.45,0.45,0.337,0.011,0.102,NaN,NaN,NaN,NaN,NaN,NaN,NaN,NaN,0.004,15.24,182.415,85,0,0.1,18.841,1000.175,342.716,0.01,0.027,9.286
0.39,7.33,40.294,99.668,40.448,100.048,0.641,0,0.641,0,3.525,8.72,48.476,-80.44,9.808,0.141,0,0,0,5.567e4,1.606e4,56.705,0.264,NaN,252.16,NaN,0.118,1.069e7,6122.005,8,0.449,0.449,0.335,0.011,0.102,NaN,NaN,NaN,NaN,NaN,NaN,NaN,NaN,0.004,15.24,182.415,85,0,0.1,18.84,1000.156,342.716,0.01,0.027,9.763
0.4,7.738,41.281,98.74,41.439,99.117,0.677,0,0.677,0,3.612,8.639,48.476,-80.44,9.808,0.138,0,0,0,5.563e4,1.602e4,56.705,0.264,NaN,252.181,NaN,0.121,1.095e7,6065.915,8.374,0.448,0.448,0.334,0.011,0.102,NaN,NaN,NaN,NaN,NaN,NaN,NaN,NaN,0.004,15.24,182.415,85,0,0.1,18.838,1000.136,342.715,0.01,0.028,10.247
0.41,8.156,42.263,98.204,42.425,98.579,0.714,0,0.714,0,3.698,8.592,48.476,-80.44,9.808,0.135,0,0,0,5.56e4,1.599e4,56.705,0.264,NaN,252.194,NaN,0.124,1.121e7,6033.297,8.754,0.447,0.447,0.333,0.011,0.103,NaN,NaN,NaN,NaN,NaN,NaN,NaN,NaN,0.004,15.24,182.415,85,0,0.1,18.837,1000.116,342.714,0.01,0.028,10.74
0.42,8.584,43.244,98.088,43.409,98.463,0.751,0,0.751,0,3.783,8.582,48.476,-80.44,9.808,0.131,0,0,0,5.557e4,1.597e4,56.705,0.264,NaN,252.208,NaN,0.127,1.147e7,6024.15,9.142,0.446,0.446,0.332,0.011,0.103,NaN,NaN,NaN,NaN,NaN,NaN,NaN,NaN,0.004,15.24,182.415,85,0,0.1,18.836,1000.095,342.713,0.01,0.029,11.244
0.435,9.243,44.71,97.787,44.882,98.237,0.809,4.703e-8,0.809,3.332e-6,3.924,9.398,48.476,-80.44,9.808,0.143,0,0.005,-2.38e-5,5.552e4,1.592e4,56.708,0.264,315.922,252.24,4.179,0.131,1.186e7,6006.679,9.737,0.444,0.444,0.33,0.012,0.103,0.027,0.115,-3.458e-4,0,0,0,0,7.277e-8,0.004,15.24,182.415,85,0,0.1,18.834,1000.064,342.712,0.015,0.029,12.02
0.458,10.273,46.866,95.803,47.048,96.246,0.899,2.991e-7,0.899,1.906e-5,4.132,9.222,48.476,-80.44,9.808,0.159,0,0.015,-4.315e-5,5.544e4,1.583e4,56.716,0.264,315.838,252.303,4.169,0.137,1.243e7,5888.072,10.645,0.442,0.442,0.327,0.012,0.103,0.031,0.127,-5.34e-5,0,0,0,0,5.172e-7,0.005,15.24,182.415,85,3.63e-6,0.1,18.831,1000.014,342.711,0.023,0.03,13.207
0.491,11.909,50.077,95.237,50.273,95.678,1.044,1.108e-6,1.044,6.081e-5,4.441,9.17,48.476,-80.44,9.808,0.18,0,0.033,1.699e-5,5.533e4,1.572e4,56.715,0.263,315.732,252.352,4.159,0.147,1.328e7,5846.489,12.1,0.44,0.44,0.325,0.012,0.103,0.035,0.144,3.562e-4,0,0,0,0,2.201e-6,0.005,15.24,182.415,84.999,1.121e-5,0.1,18.826,999.935,342.708,0.034,0.03,15.079
0.541,14.53,54.766,93.827,54.984,94.262,1.277,3.329e-6,1.277,1.493e-4,4.893,9.045,48.476,-80.44,9.808,0.206,0,0.069,-1.411e-5,5.516e4,1.556e4,56.715,0.263,315.613,252.422,4.146,0.16,1.452e7,5753.315,14.49,0.44,0.44,0.325,0.012,0.104,0.04,0.164,1.415e-4,0,0,0,0,7.987e-6,0.005,15.24,182.415,84.996,2.987e-5,0.1,18.819,999.809,342.703,0.05,0.03,18.036
0.591,17.385,59.418,93.164,59.658,93.597,1.533,6.882e-6,1.533,2.572e-4,5.342,8.987,48.476,-80.44,9.808,0.225,0,0.117,-1.438e-4,5.5e4,1.539e4,56.713,0.262,315.533,252.487,4.137,0.174,1.576e7,5702.258,17.084,0.441,0.441,0.324,0.012,0.104,0.043,0.18,3.122e-4,0,0,0,0,1.921e-5,0.006,15.24,182.415,84.992,6.346e-5,0.1,18.81,999.672,342.698,0.05,0.031,21.23
0.641,20.471,64.018,92.132,64.279,92.561,1.812,1.189e-5,1.812,3.761e-4,5.786,8.902,48.476,-80.44,9.808,0.238,0,0.176,-1.296e-6,5.484e4,1.523e4,56.722,0.262,315.489,252.579,4.128,0.188,1.698e7,5631.5,19.862,0.442,0.442,0.324,0.013,0.105,0.046,0.19,-2.496e-4,0,0,0,0,3.778e-5,0.006,15.24,182.415,84.985,1.293e-4,0.1,18.801,999.524,342.692,0.05,0.031,24.644
0.691,23.786,68.578,91.326,68.861,91.753,2.112,1.85e-5,2.112,5.018e-4,6.228,8.843,48.476,-80.44,9.808,0.246,0,0.248,1.41e-4,5.468e4,1.507e4,56.72,0.262,315.479,252.634,4.124,0.201,1.819e7,5573.874,22.83,0.442,0.443,0.324,0.013,0.105,0.047,0.195,6.552e-5,0,0,0,0,6.508e-5,0.007,15.24,182.415,84.974,2.133e-4,0.1,18.792,999.365,342.687,0.05,0.032,28.279
0.741,27.33,73.175,92.05,73.479,92.481,2.434,2.684e-5,2.434,6.317e-4,6.673,8.925,48.476,-80.44,9.808,0.248,0,0.331,8.351e-5,5.452e4,1.491e4,56.716,0.261,315.506,252.684,4.122,0.214,1.94e7,5600.674,26.037,0.443,0.443,0.324,0.013,0.106,0.048,0.197,3.603e-4,0,0,0,0,1.023e-4,0.007,15.24,182.415,84.96,3.302e-4,0.1,18.781,999.194,342.68,0.05,0.032,32.194
0.791,31.101,77.705,90.705,78.029,91.134,2.779,3.708e-5,2.779,7.645e-4,7.113,8.833,48.476,-80.44,9.808,0.244,0,0.426,-2.049e-4,5.436e4,1.475e4,56.713,0.261,315.565,252.73,4.123,0.228,2.06e7,5514.761,29.413,0.444,0.444,0.324,0.014,0.106,0.047,0.195,3.327e-4,0,0,0,0,1.498e-4,0.008,15.24,182.415,84.941,5.249e-4,0.1,18.77,999.013,342.674,0.05,0.032,36.3
0.841,35.1,82.228,90.569,82.574,91.001,3.146,4.94e-5,3.146,8.997e-4,7.555,8.858,48.476,-80.44,9.808,0.235,0,0.529,-2.185e-4,5.421e4,1.46e4,56.702,0.26,315.659,252.755,4.128,0.241,2.18e7,5495.468,33,0.445,0.445,0.324,0.014,0.107,0.045,0.187,3.899e-4,0,0,0,0,2.067e-4,0.008,15.24,182.415,84.917,7.511e-4,0.1,18.759,998.821,342.667,0.05,0.033,40.646
0.891,39.325,86.781,91.171,87.149,91.61,3.535,6.399e-5,3.535,0.001,8.001,8.96,48.476,-80.44,9.808,0.221,0,0.639,-4.55e-4,5.405e4,1.445e4,56.693,0.26,315.788,252.78,4.134,0.254,2.3e7,5516.769,36.829,0.446,0.446,0.323,0.015,0.108,0.043,0.176,-2.998e-4,0,0,0,0,2.706e-4,0.008,15.24,182.415,84.888,0.001,0.1,18.746,998.618,342.659,0.05,0.033,45.267
0.941,43.777,91.303,90.543,91.693,90.986,3.946,8.108e-5,3.946,0.001,8.447,8.964,48.476,-80.44,9.808,0.201,0,0.752,2.548e-5,5.39e4,1.429e4,56.687,0.26,315.95,252.813,4.143,0.268,2.42e7,5471.733,40.853,0.447,0.447,0.323,0.015,0.109,0.039,0.16,3.586e-4,0,0,0,0,3.382e-4,0.009,15.24,182.415,84.853,0.001,0.1,18.733,998.404,342.651,0.05,0.033,50.102
0.991,48.456,95.865,91.35,96.278,91.803,4.379,1.009e-4,4.379,0.001,8.9,9.111,48.476,-80.44,9.808,0.176,0,0.864,-4.059e-4,5.375e4,1.414e4,56.68,0.259,316.145,252.843,4.154,0.281,2.541e7,5504.797,45.139,0.448,0.448,0.323,0.016,0.109,0.034,0.141,9.128e-5,0,0,0,0,4.049e-4,0.009,15.24,182.415,84.812,0.002,0.1,18.72,998.179,342.643,0.05,0.034,55.228
1.041,53.363,100.42,91.191,100.855,91.652,4.836,1.237e-4,4.836,0.001,9.357,9.183,48.476,-80.44,9.808,0.147,0,0.969,1.46e-4,5.36e4,1.4e4,56.663,0.259,316.369,252.839,4.169,0.294,2.661e7,5486.108,49.647,0.449,0.449,0.323,0.016,0.11,0.028,0.117,1.759e-4,0,0,0,0,4.643e-4,0.01,15.24,182.415,84.767,0.002,0.1,18.705,997.943,342.634,0.05,0.034,60.593
1.091,58.499,105.014,91.966,105.472,92.441,5.315,1.499e-4,5.315,0.002,9.822,9.353,48.476,-80.44,9.808,0.113,0,1.061,-8.801e-5,5.346e4,1.385e4,56.655,0.259,316.621,252.862,4.184,0.308,2.782e7,5518.132,54.428,0.45,0.45,0.322,0.017,0.111,0.022,0.09,-4.977e-4,0,0,0,0,5.095e-4,0.01,15.24,182.415,84.716,0.002,0.1,18.69,997.696,342.625,0.05,0.035,66.255
1.141,63.865,109.617,92.147,110.099,92.633,5.818,1.795e-4,5.818,0.002,10.292,9.481,48.476,-80.44,9.808,0.077,0,1.136,5.323e-4,5.331e4,1.37e4,56.646,0.258,316.893,252.88,4.2,0.321,2.904e7,5518.542,59.46,0.452,0.452,0.322,0.017,0.112,0.015,0.062,-4.998e-5,0,0,0,0,5.355e-4,0.011,15.24,182.415,84.661,0.003,0.1,18.675,997.438,342.616,0.05,0.035,72.18
1.191,69.46,114.2,91.738,114.706,92.235,6.345,2.13e-4,6.345,0.002,10.767,9.563,48.476,-80.44,9.808,0.039,0,1.185,0.002,5.317e4,1.356e4,56.637,0.258,317.178,252.895,4.218,0.335,3.025e7,5487.891,64.712,0.453,0.453,0.322,0.018,0.113,0.007,0.031,-4.916e-4,0,0,0,0,5.366e-4,0.011,15.24,182.415,84.603,0.003,0.1,18.658,997.169,342.606,0.05,0.036,78.331
1.241,75.285,118.807,92.23,119.339,92.743,6.895,2.507e-4,6.895,0.002,11.25,9.736,48.476,-80.44,9.808,4.261e-4,0,0,0,5.303e4,1.342e4,56.627,0.257,317.468,252.906,4.236,0.348,3.147e7,5505.813,70.242,0.454,0.454,0.321,0.019,0.114,8.182e-5,2.994e-4,-1.847e-4,0,0,0,0,0,0.012,15.24,182.415,84.543,0.003,0.1,18.641,996.889,342.595,0.05,0.036,84.766
1.291,81.341,123.413,92.203,123.971,92.729,7.47,2.927e-4,7.47,0.002,11.74,9.863,48.476,-80.44,9.808,0.037,4.156e-7,-1.182,0.002,5.289e4,1.328e4,56.616,0.257,317.319,252.914,4.226,0.362,3.268e7,5496.401,76.024,0.456,0.456,0.321,0.019,0.115,0.007,0.03,3.882e-5,0,0,0,0,-4.576e-4,0.012,15.24,182.415,84.483,0.003,0.1,18.624,996.598,342.585,0.05,0.037,91.453
1.341,87.627,128.022,92.244,128.605,92.784,8.069,3.393e-4,8.069,0.002,12.236,9.994,48.476,-80.44,9.808,0.07,-4.286e-7,-1.123,0.002,5.275e4,1.314e4,56.605,0.257,317.188,252.919,4.217,0.375,3.39e7,5491.07,82.067,0.457,0.457,0.321,0.02,0.116,0.014,0.058,2.803e-4,0,0,0,0,-3.838e-4,0.013,15.24,182.415,84.425,0.004,0.1,18.605,996.296,342.574,0.05,0.037,98.396
1.391,94.142,132.598,91.59,133.208,92.139,8.693,3.907e-4,8.693,0.003,12.736,10.05,48.476,-80.44,9.808,0.099,0,-1.023,0.002,5.261e4,1.3e4,56.593,0.256,317.089,252.92,4.211,0.389,3.51e7,5449.309,88.327,0.459,0.459,0.321,0.021,0.117,0.019,0.081,-7.841e-5,0,0,0,0,-2.969e-4,0.013,15.24,182.415,84.372,0.004,0.1,18.586,995.982,342.562,0.05,0.037,105.539
1.441,100.886,137.164,91.378,137.801,91.939,9.343,4.472e-4,9.343,0.003,13.239,10.137,48.476,-80.44,9.808,0.121,0,-0.884,0.002,5.248e4,1.287e4,56.58,0.256,317.033,252.918,4.207,0.402,3.631e7,5431.419,94.836,0.46,0.46,0.32,0.022,0.119,0.024,0.099,-4.053e-4,0,0,0,0,-2.07e-4,0.013,15.24,182.415,84.324,0.004,0.1,18.567,995.658,342.55,0.05,0.038,112.913
1.491,107.858,141.725,91.283,142.39,91.853,10.017,5.09e-4,10.017,0.003,13.748,10.216,48.476,-80.44,9.808,0.135,-3.211e-7,-0.71,0.002,5.234e4,1.273e4,56.578,0.256,317.027,252.942,4.205,0.416,3.751e7,5420.006,101.604,0.462,0.462,0.32,0.023,0.12,0.026,0.11,-3.018e-4,0,0,0,0,-1.251e-4,0.014,15.24,182.415,84.284,0.005,0.1,18.546,995.323,342.538,0.05,0.038,120.526
1.541,115.057,146.234,90.248,146.927,90.82,10.717,5.768e-4,10.717,0.003,14.255,10.178,48.476,-80.44,9.808,0.14,0,-0.511,0.001,5.221e4,1.26e4,56.564,0.255,317.077,252.934,4.209,0.429,3.869e7,5359.529,108.562,0.464,0.464,0.319,0.023,0.121,0.027,0.115,-3.638e-4,0,0,0,0,-6.091e-5,0.014,15.24,182.415,84.253,0.006,0.1,18.525,994.977,342.525,0.05,0.039,128.294
1.591,122.481,150.729,89.958,151.451,90.533,11.443,6.51e-4,11.443,0.003,14.763,10.187,48.476,-80.44,9.808,0.135,0,-0.298,6.519e-4,5.208e4,1.247e4,56.549,0.255,317.186,252.923,4.217,0.442,3.988e7,5338.582,115.767,0.466,0.466,0.319,0.024,0.122,0.026,0.111,2.072e-4,0,0,0,0,-1.954e-5,0.015,15.24,182.415,84.233,0.006,0.1,18.503,994.62,342.512,0.05,0.039,136.276
1.641,130.13,155.204,89.551,155.954,90.125,12.194,7.321e-4,12.194,0.003,15.271,10.156,48.476,-80.44,9.808,0.121,0,-0.09,3.343e-4,5.195e4,1.234e4,56.545,0.255,317.354,252.938,4.227,0.455,4.105e7,5311.794,123.21,0.468,0.468,0.319,0.025,0.123,0.024,0.1,-1.839e-4,0,0,0,0,-1.683e-6,0.015,15.24,182.415,84.224,0.007,0.1,18.481,994.252,342.498,0.05,0.04,144.458
1.691,138.001,159.633,88.625,160.41,89.192,12.97,8.206e-4,12.97,0.004,15.773,10.044,48.476,-80.44,9.808,0.098,0,0.099,0.002,5.182e4,1.221e4,56.529,0.254,317.573,252.922,4.242,0.468,4.221e7,5258.288,130.849,0.47,0.47,0.318,0.026,0.125,0.019,0.081,4.377e-4,0,0,0,0,1.934e-6,0.016,15.24,182.415,84.224,0.008,0.1,18.458,993.874,342.485,0.05,0.04,152.786
1.741,146.092,164.032,88.02,164.837,88.58,13.771,9.169e-4,13.771,0.004,16.271,9.94,48.476,-80.44,9.808,0.068,0,0.252,0.001,5.169e4,1.208e4,56.512,0.254,317.835,252.903,4.261,0.481,4.337e7,5221.962,138.71,0.471,0.472,0.318,0.027,0.126,0.013,0.057,-4.945e-4,0,0,0,0,1.179e-5,0.016,15.24,182.415,84.233,0.008,0.1,18.435,993.485,342.47,0.05,0.04,161.284
1.791,154.403,168.402,87.448,169.234,87.997,14.597,0.001,14.597,0.004,16.763,9.819,48.476,-80.44,9.808,0.033,0,0.349,0.004,5.157e4,1.196e4,56.507,0.254,318.124,252.91,4.279,0.494,4.451e7,5187.725,146.798,0.474,0.474,0.317,0.029,0.128,0.007,0.028,1.527e-4,0,0,0,0,2.145e-5,0.016,15.24,182.415,84.248,0.009,0.1,18.41,993.086,342.456,0.05,0.041,169.95
1.841,162.932,172.764,87.286,173.623,87.826,15.447,0.001,15.447,0.004,17.251,9.729,48.476,-80.44,9.808,0.002,0,-0.377,0.049,5.144e4,1.184e4,56.489,0.253,318.401,252.886,4.299,0.507,4.566e7,5175.189,155.154,0.476,0.476,0.317,0.03,0.129,3.944e-4,0.002,4.805e-4,0,0,0,0,-2.373e-5,0.017,15.24,182.415,84.267,0.01,0.1,18.385,992.676,342.44,0.05,0.041,178.821
1.891,171.678,177.079,86.334,177.964,86.862,16.322,0.001,16.322,0.004,17.731,9.559,48.476,-80.44,9.808,0.035,0,-0.34,0.003,5.132e4,1.171e4,56.477,0.253,318.304,252.875,4.293,0.52,4.679e7,5122.319,163.704,0.478,0.478,0.317,0.031,0.13,0.007,0.029,-2.193e-4,0,0,0,0,-1.836e-5,0.017,15.24,182.415,84.285,0.011,0.1,18.36,992.255,342.425,0.05,0.042,187.813
1.941,180.64,181.389,86.233,182.3,86.753,17.22,0.001,17.22,0.005,18.207,9.483,48.476,-80.44,9.808,0.063,0,-0.228,0.001,5.12e4,1.159e4,56.463,0.253,318.248,252.859,4.291,0.532,4.791e7,5113.864,172.533,0.48,0.48,0.316,0.032,0.132,0.012,0.053,-1.135e-4,0,0,0,0,-7.89e-6,0.018,15.24,182.415,84.3,0.012,0.1,18.334,991.824,342.409,0.05,0.042,197.008
1.991,189.816,185.661,85.459,186.597,85.97,18.142,0.002,18.142,0.005,18.675,9.362,48.476,-80.44,9.808,0.081,0,-0.053,1.135e-4,5.108e4,1.147e4,56.45,0.252,318.25,252.844,4.292,0.545,4.903e7,5071.376,181.576,0.482,0.482,0.316,0.033,0.133,0.016,0.069,7.88e-5,0,0,0,0,-4.018e-7,0.018,15.24,182.415,84.307,0.012,0.1,18.307,991.383,342.393,0.05,0.042,206.332
2.041,199.204,189.872,84.252,190.834,84.755,19.088,0.002,19.088,0.005,19.137,9.227,48.476,-80.44,9.808,0.089,0,0.166,-0.001,5.096e4,1.135e4,56.435,0.252,318.32,252.823,4.298,0.557,5.013e7,5007.327,190.783,0.485,0.485,0.315,0.035,0.135,0.018,0.075,2.231e-4,0,0,0,0,3.789e-6,0.019,15.24,182.415,84.304,0.012,0.1,18.279,990.932,342.376,0.05,0.043,215.73
2.091,208.803,194.06,83.778,195.047,84.282,20.056,0.002,20.056,0.005,19.596,9.202,48.476,-80.44,9.808,0.085,0,0.399,0.001,5.084e4,1.124e4,56.414,0.252,318.465,252.788,4.309,0.57,5.121e7,4981.567,200.196,0.487,0.487,0.315,0.036,0.136,0.017,0.073,6.334e-5,0,0,0,0,2.103e-5,0.019,15.24,182.415,84.29,0.012,0.1,18.235,990.222,342.35,0.05,0.043,225.233
2.141,218.61,198.246,83.716,199.258,84.226,21.047,0.002,21.047,0.006,20.057,9.257,48.476,-80.44,9.808,0.07,0,0.616,0.002,5.073e4,1.112e4,56.405,0.252,318.682,252.78,4.324,0.582,5.228e7,4977.444,209.84,0.49,0.49,0.314,0.038,0.138,0.014,0.06,-1.526e-4,0,0,0,0,4.802e-5,0.019,15.24,182.415,84.264,0.011,0.1,18.166,989.109,342.307,0.05,0.043,234.854
2.191,228.627,202.413,83.348,203.45,83.867,22.062,0.002,22.062,0.006,20.521,9.315,48.476,-80.44,9.808,0.046,0,0.784,0.006,5.061e4,1.1e4,56.383,0.251,318.959,252.74,4.345,0.594,5.334e7,4958.339,219.741,0.492,0.492,0.314,0.039,0.139,0.009,0.039,-2.885e-4,0,0,0,0,7.472e-5,0.02,15.24,182.415,84.229,0.009,0.1,18.094,987.972,342.264,0.05,0.044,244.62
2.241,238.85,206.525,82.239,207.588,82.765,23.099,0.002,23.099,0.006,20.984,9.321,48.476,-80.44,9.808,0.016,0,0.878,0.018,5.05e4,1.089e4,56.368,0.251,319.273,252.716,4.367,0.607,5.439e7,4902.068,229.812,0.495,0.495,0.313,0.041,0.141,0.003,0.014,4.977e-4,0,0,0,0,9.011e-5,0.02,15.24,182.415,84.187,0.008,0.1,18.022,986.812,342.22,0.05,0.044,254.436
2.291,249.278,210.604,81.57,211.693,82.108,24.16,0.003,24.16,0.006,21.45,9.382,48.476,-80.44,9.808,0.015,0,-0.881,0.024,5.039e4,1.078e4,56.35,0.251,319.425,252.685,4.379,0.619,5.542e7,4868.795,240.109,0.498,0.498,0.313,0.042,0.143,0.003,0.013,-6.827e-5,0,0,0,0,-8.724e-5,0.021,15.24,182.415,84.143,0.007,0.1,17.947,985.629,342.175,0.05,0.045,264.348
2.341,259.91,214.665,81.229,215.782,81.779,25.244,0.003,25.244,0.006,21.92,9.469,48.476,-80.44,9.808,0.042,0,-0.785,0.008,5.028e4,1.067e4,56.334,0.25,319.412,252.657,4.38,0.631,5.645e7,4852.524,250.678,0.501,0.501,0.312,0.044,0.144,0.008,0.037,3.361e-4,0,0,0,0,-6.66e-5,0.021,15.24,182.415,84.1,0.006,0.1,17.872,984.422,342.129,0.05,0.045,274.393
2.391,270.744,218.706,80.806,219.85,81.366,26.352,0.003,26.352,0.007,22.394,9.525,48.476,-80.44,9.808,0.062,0,-0.602,0.006,5.017e4,1.056e4,56.316,0.25,319.45,252.623,4.385,0.643,5.747e7,4832.527,261.513,0.504,0.504,0.312,0.046,0.146,0.012,0.054,3.04e-4,0,0,0,0,-3.775e-5,0.021,15.24,182.415,84.066,0.006,0.1,17.794,983.193,342.082,0.05,0.045,284.557
2.441,281.78,222.709,80.039,223.88,80.602,27.484,0.003,27.484,0.007,22.868,9.507,48.476,-80.44,9.808,0.07,0,-0.362,0.004,5.006e4,1.045e4,56.304,0.25,319.558,252.604,4.393,0.655,5.848e7,4795.412,272.571,0.507,0.507,0.312,0.048,0.148,0.014,0.061,1.104e-5,0,0,0,0,-1.313e-5,0.022,15.24,182.415,84.041,0.006,0.1,17.716,981.941,342.035,0.05,0.046,294.789
2.491,293.015,226.698,79.77,227.897,80.333,28.639,0.004,28.639,0.007,23.343,9.493,48.476,-80.44,9.808,0.066,0,-0.106,0.003,4.995e4,1.034e4,56.279,0.25,319.743,252.555,4.409,0.666,5.948e7,4783.63,283.926,0.51,0.51,0.311,0.05,0.149,0.013,0.058,8.92e-5,0,0,0,0,-1.083e-6,0.022,15.24,182.415,84.03,0.007,0.1,17.636,980.666,341.986,0.05,0.046,305.15
2.541,304.449,230.653,79.065,231.879,79.62,29.818,0.004,29.818,0.007,23.813,9.387,48.476,-80.44,9.808,0.05,0,0.125,0.005,4.984e4,1.024e4,56.267,0.249,320,252.533,4.427,0.678,6.047e7,4750.163,295.523,0.513,0.513,0.31,0.052,0.151,0.01,0.044,2.394e-4,0,0,0,0,1.453e-6,0.023,15.24,182.415,84.031,0.009,0.1,17.554,979.369,341.937,0.05,0.047,315.576
2.591,316.079,234.568,78.287,235.821,78.83,31.02,0.004,31.02,0.007,24.277,9.235,48.476,-80.44,9.807,0.026,0,0.28,0.005,4.973e4,1.012e4,56.24,0.249,320.31,252.477,4.451,0.69,6.144e7,4712.677,307.356,0.517,0.517,0.31,0.054,0.153,0.005,0.023,8.803e-6,0,0,0,0,7.076e-6,0.023,15.24,182.415,84.041,0.012,0.1,17.472,978.049,341.887,0.05,0.047,326.052
2.641,327.905,238.46,77.811,239.74,78.34,32.245,0.004,32.245,0.008,24.734,9.093,48.476,-80.44,9.807,0.002,-4.52e-7,-0.324,0.036,4.963e4,1.002e4,56.227,0.249,320.619,252.452,4.473,0.701,6.241e7,4691.379,319.479,0.52,0.52,0.309,0.056,0.155,4.557e-4,0.002,4.078e-4,0,0,0,0,-9.216e-6,0.023,15.24,182.415,84.057,0.015,0.1,17.387,976.707,341.836,0.05,0.048,336.612
2.691,339.925,242.324,77.244,243.63,77.76,33.493,0.005,33.493,0.008,25.184,8.943,48.476,-80.44,9.807,0.028,0,-0.259,-6.281e-4,4.953e4,9916.705,56.2,0.248,320.64,252.397,4.478,0.713,6.337e7,4666.053,331.888,0.524,0.524,0.309,0.059,0.156,0.006,0.025,2.932e-4,0,0,0,0,-5.706e-6,0.024,15.24,182.415,84.072,0.017,0.1,17.302,975.343,341.784,0.05,0.048,347.241
2.741,352.137,246.175,76.973,247.506,77.48,34.764,0.005,34.764,0.008,25.628,8.848,48.476,-80.44,9.807,0.047,0,-0.086,-0.004,4.942e4,9815.275,56.183,0.248,320.708,252.362,4.485,0.724,6.432e7,4656.125,344.645,0.528,0.528,0.308,0.061,0.158,0.009,0.042,-3.067e-4,0,0,0,0,-6.045e-7,0.024,15.24,182.415,84.081,0.02,0.1,17.215,973.957,341.731,0.05,0.048,357.976
2.791,364.541,249.989,76.233,251.345,76.734,36.056,0.005,36.056,0.008,26.066,8.749,48.476,-80.44,9.807,0.054,0,0.154,-0.003,4.932e4,9714.975,56.159,0.248,320.845,252.313,4.497,0.736,6.526e7,4623.644,357.683,0.532,0.532,0.308,0.064,0.16,0.011,0.049,-4.999e-4,0,0,0,0,1.893e-6,0.024,15.24,182.415,84.08,0.021,0.1,17.127,972.55,341.678,0.05,0.049,368.746
2.841,377.135,253.763,75.41,255.143,75.909,37.37,0.005,37.37,0.008,26.5,8.695,48.476,-80.439,9.807,0.049,0,0.41,-0.004,4.922e4,9615.781,56.141,0.248,321.058,252.275,4.513,0.747,6.618e7,4587.767,370.999,0.536,0.536,0.307,0.067,0.162,0.01,0.045,2.046e-4,0,0,0,0,1.298e-5,0.025,15.24,182.415,84.065,0.021,0.1,17.037,971.121,341.623,0.05,0.049,379.533
2.891,389.917,257.498,74.629,258.902,75.134,38.706,0.006,38.706,0.009,26.933,8.697,48.476,-80.439,9.807,0.032,-5.679e-7,0.615,-7.738e-4,4.913e4,9517.675,56.117,0.247,321.34,252.223,4.535,0.758,6.71e7,4554.861,384.615,0.54,0.54,0.307,0.07,0.164,0.006,0.03,-3.977e-4,0,0,0,0,2.842e-5,0.025,15.24,182.415,84.039,0.018,0.1,16.946,969.67,341.568,0.05,0.05,390.339
2.941,402.884,261.204,74.062,262.634,74.578,40.063,0.006,40.063,0.009,27.368,8.758,48.476,-80.439,9.807,0.008,-3.358e-7,0.723,0.011,4.903e4,9420.65,56.102,0.247,321.666,252.192,4.559,0.769,6.8e7,4533.256,398.591,0.545,0.545,0.306,0.073,0.165,0.002,0.008,-3.583e-4,0,0,0,0,3.809e-5,0.026,15.24,182.415,84.005,0.015,0.1,16.854,968.199,341.512,0.05,0.05,401.191
2.991,416.037,264.896,73.754,266.351,74.283,41.443,0.007,41.443,0.009,27.808,8.855,48.476,-80.439,9.807,0.017,-3.03e-7,-0.698,0.012,4.893e4,9324.698,56.074,0.247,321.805,252.13,4.572,0.78,6.89e7,4525.074,413.004,0.549,0.549,0.306,0.076,0.167,0.003,0.015,-1.547e-4,0,0,0,0,-3.46e-5,0.026,15.24,182.415,83.969,0.011,0.1,16.76,966.706,341.455,0.05,0.05,412.125
3.041,429.373,268.567,73.339,270.049,73.879,42.844,0.007,42.844,0.009,28.252,8.922,48.476,-80.439,9.807,0.036,-3.294e-7,-0.544,0.008,4.884e4,9229.802,56.059,0.247,321.883,252.096,4.579,0.791,6.978e7,4512.147,427.864,0.554,0.554,0.305,0.08,0.169,0.007,0.034,-2.46e-5,0,0,0,0,-2.039e-5,0.026,15.24,182.415,83.937,0.008,0.1,16.665,965.193,341.398,0.05,0.051,423.122
3.091,442.893,272.22,72.979,273.729,73.525,44.268,0.007,44.268,0.009,28.698,8.948,48.476,-80.439,9.807,0.045,-8.158e-7,-0.306,0.009,4.874e4,9135.959,56.029,0.246,322.025,252.032,4.593,0.802,7.066e7,4502.345,443.217,0.56,0.56,0.305,0.084,0.171,0.009,0.042,-1.265e-4,0,0,0,0,-6.278e-6,0.027,15.24,182.415,83.916,0.007,0.1,16.569,963.659,341.34,0.05,0.051,434.185
3.141,456.594,275.834,72.186,277.369,72.729,45.714,0.008,45.714,0.01,29.143,8.867,48.476,-80.439,9.807,0.041,0,-0.048,0.008,4.865e4,9043.155,56.014,0.246,322.243,251.997,4.609,0.813,7.153e7,4471.645,459.006,0.565,0.565,0.304,0.088,0.173,0.008,0.039,-3.534e-4,0,0,0,0,-1.53e-7,0.027,15.24,182.415,83.907,0.008,0.1,16.471,962.104,341.28,0.05,0.052,445.242
3.191,470.477,279.448,72.197,281.01,72.733,47.182,0.008,47.182,0.01,29.585,8.814,48.476,-80.439,9.807,0.026,2.977e-7,0.16,0.009,4.856e4,8951.388,55.984,0.246,322.53,251.931,4.633,0.824,7.24e7,4480.781,475.462,0.571,0.571,0.303,0.093,0.175,0.005,0.025,-3.725e-4,0,0,0,0,1.634e-6,0.027,15.24,182.415,83.91,0.012,0.1,16.372,960.529,341.221,0.05,0.052,456.415
3.241,484.539,283.039,71.706,284.626,72.228,48.672,0.008,48.672,0.01,30.022,8.668,48.476,-80.439,9.807,0.004,0,0.257,0.024,4.847e4,8860.651,55.963,0.246,322.858,251.885,4.657,0.834,7.325e7,4465.968,492.537,0.577,0.577,0.303,0.098,0.177,8.304e-4,0.004,-2.149e-4,0,0,0,0,4.111e-6,0.028,15.24,182.415,83.922,0.017,0.1,16.272,958.933,341.16,0.05,0.053,467.622
3.291,498.779,286.577,70.7,288.19,71.205,50.184,0.009,50.184,0.01,30.447,8.462,48.476,-80.439,9.807,0.018,0,-0.206,-9.746e-4,4.835e4,8742.774,55.925,0.245,322.978,251.801,4.67,0.845,7.409e7,4424.506,510.155,0.584,0.584,0.302,0.103,0.179,0.004,0.017,-4.908e-4,0,0,0,0,-2.56e-6,0.028,15.24,182.415,83.934,0.022,0.1,16.171,957.317,341.098,0.05,0.053,478.765
3.341,513.195,290.06,69.575,291.697,70.065,51.717,0.009,51.717,0.01,30.863,8.273,48.476,-80.439,9.807,0.033,0,-0.032,-0.004,4.82e4,8591.932,55.878,0.245,323.091,251.695,4.685,0.855,7.491e7,4375.625,528.369,0.591,0.591,0.302,0.109,0.181,0.007,0.031,-5.259e-5,0,0,0,0,-5.922e-8,0.028,15.24,182.415,83.941,0.025,0.1,16.068,955.681,341.036,0.05,0.053,489.823
3.391,527.785,293.519,69.106,295.181,69.592,53.27,0.01,53.27,0.011,31.274,8.211,48.476,-80.439,9.807,0.037,0,0.215,3.039e-4,4.806e4,8446.622,55.826,0.245,323.273,251.578,4.704,0.866,7.572e7,4360.365,547.447,0.599,0.599,0.301,0.115,0.183,0.008,0.036,3.177e-4,0,0,0,0,2.673e-6,0.029,15.24,182.415,83.936,0.025,0.1,15.964,954.026,340.973,0.05,0.054,500.904
3.441,542.547,296.967,68.841,298.652,69.332,54.844,0.01,54.844,0.011,31.684,8.237,48.476,-80.439,9.807,0.028,-6.158e-7,0.452,-0.004,4.791e4,8304.011,55.768,0.244,323.529,251.45,4.73,0.876,7.653e7,4356.713,567.594,0.608,0.608,0.3,0.123,0.185,0.006,0.028,-1.252e-4,0,0,0,0,1.15e-5,0.029,15.24,182.415,83.919,0.023,0.1,15.859,952.351,340.91,0.05,0.054,512.041
3.491,557.481,300.412,68.786,302.122,69.29,56.439,0.011,56.439,0.011,32.099,8.34,48.476,-80.439,9.807,0.01,-3.939e-7,0.589,0.007,4.777e4,8164.049,55.725,0.244,323.84,251.351,4.756,0.886,7.733e7,4365.056,589.075,0.617,0.617,0.3,0.131,0.187,0.002,0.009,4.541e-4,0,0,0,0,1.911e-5,0.029,15.24,182.415,83.892,0.019,0.1,15.753,950.656,340.845,0.05,0.055,523.269
3.541,572.587,303.822,68.05,305.557,68.565,58.054,0.011,58.054,0.011,32.516,8.388,48.476,-80.439,9.807,0.01,-1.49e-6,-0.583,0.02,4.764e4,8026.687,55.666,0.244,324.046,251.22,4.779,0.897,7.812e7,4342.383,611.92,0.628,0.628,0.299,0.14,0.189,0.002,0.01,-2.296e-4,0,0,0,0,-1.835e-5,0.03,15.24,182.415,83.862,0.016,0.1,15.645,948.942,340.78,0.05,0.055,534.468
3.591,587.862,307.182,67.164,308.943,67.687,59.691,0.012,59.691,0.011,32.934,8.398,48.476,-80.439,9.807,0.026,0,-0.443,0.008,4.75e4,7891.876,55.622,0.243,324.164,251.12,4.793,0.907,7.89e7,4306.08,627.948,0.631,0.631,0.298,0.142,0.191,0.005,0.026,-1.037e-4,0,0,0,0,-1.035e-5,0.03,15.24,182.415,83.835,0.014,0.1,15.536,947.209,340.714,0.05,0.056,545.586
3.641,603.305,310.505,66.42,312.291,66.945,61.348,0.012,61.348,0.012,33.352,8.367,48.476,-80.439,9.807,0.031,-3.69e-7,-0.203,0.01,4.737e4,7759.57,55.563,0.243,324.34,250.986,4.813,0.917,7.966e7,4272.614,639.919,0.63,0.63,0.296,0.141,0.193,0.007,0.031,-4.038e-4,0,0,0,0,-2.135e-6,0.03,15.24,182.415,83.819,0.015,0.1,15.427,945.456,340.647,0.05,0.056,556.656
3.691,618.912,313.812,66.121,315.624,66.642,63.026,0.013,63.026,0.012,33.769,8.312,48.476,-80.439,9.807,0.025,0,0.031,0.01,4.724e4,7629.722,55.519,0.243,324.588,250.884,4.836,0.927,8.041e7,4260.358,651.916,0.63,0.63,0.295,0.14,0.195,0.005,0.025,4.425e-4,0,0,0,0,4.827e-8,0.031,15.24,182.415,83.815,0.018,0.1,15.315,943.685,340.58,0.05,0.056,567.755
3.741,634.686,317.143,66.583,318.98,67.096,64.725,0.014,64.725,0.012,34.185,8.281,48.476,-80.439,9.807,0.009,0,0.173,0.01,4.711e4,7502.285,55.458,0.242,324.889,250.749,4.865,0.937,8.117e7,4284.272,664.092,0.629,0.629,0.293,0.139,0.197,0.002,0.009,-1.113e-4,0,0,0,0,1.481e-6,0.031,15.24,182.415,83.821,0.022,0.1,15.203,941.895,340.512,0.05,0.057,579.018
3.791,650.625,320.417,65.463,322.279,65.957,66.444,0.014,66.444,0.012,34.591,8.059,48.476,-80.439,9.806,0.01,0,-0.169,0.006,4.699e4,7377.215,55.409,0.242,325.088,250.637,4.885,0.947,8.191e7,4233.255,676.132,0.628,0.628,0.292,0.138,0.199,0.002,0.01,-2.745e-4,0,0,0,0,-1.377e-6,0.031,15.24,182.415,83.831,0.024,0.1,15.09,940.087,340.443,0.05,0.057,590.155
3.841,666.729,323.714,65.902,325.6,66.39,68.184,0.015,68.184,0.012,34.994,8.031,48.476,-80.439,9.806,0.023,0,-0.015,-6.667e-4,4.686e4,7254.469,55.353,0.242,325.214,250.51,4.902,0.957,8.265e7,4256.984,688.841,0.628,0.628,0.29,0.137,0.201,0.005,0.024,-4.041e-4,0,0,0,0,-1.087e-8,0.032,15.24,182.415,83.836,0.026,0.1,14.975,938.259,340.374,0.05,0.058,601.451
3.891,682.995,326.951,64.693,328.861,65.172,69.943,0.015,69.943,0.013,35.388,7.89,48.476,-80.439,9.806,0.026,0,0.211,-0.003,4.674e4,7134.003,55.292,0.241,325.394,250.373,4.923,0.966,8.338e7,4203.705,701.648,0.628,0.628,0.289,0.137,0.203,0.005,0.027,4.952e-4,0,0,0,0,2.071e-6,0.032,15.24,182.415,83.831,0.025,0.1,14.859,936.413,340.304,0.05,0.058,612.596
3.941,699.424,330.212,65.159,332.146,65.648,71.723,0.016,71.723,0.013,35.787,8.002,48.476,-80.439,9.806,0.017,-1.333e-6,0.423,-0.003,4.662e4,7015.774,55.248,0.241,325.636,250.269,4.945,0.976,8.41e7,4230.035,714.667,0.628,0.628,0.287,0.136,0.205,0.004,0.018,4.314e-4,0,0,0,0,8.154e-6,0.032,15.24,182.415,83.815,0.024,0.1,14.742,934.549,340.233,0.05,0.058,623.904
3.991,716.015,333.397,63.644,335.355,64.139,73.522,0.017,73.522,0.013,36.182,7.952,48.476,-80.439,9.806,0.001,0,0.516,0.026,4.651e4,6899.742,55.186,0.241,325.911,250.131,4.972,0.986,8.481e7,4163.838,727.514,0.628,0.628,0.285,0.136,0.207,3.173e-4,0.002,-3.284e-4,0,0,0,0,1.193e-5,0.033,15.24,182.415,83.79,0.022,0.1,14.624,932.724,340.161,0.05,0.059,635.037
4.041,732.763,336.539,62.77,338.521,63.274,75.341,0.018,75.341,0.013,36.578,7.973,48.476,-80.439,9.806,0.014,7.632e-7,-0.45,0.002,4.639e4,6785.865,55.142,0.24,326.015,250.028,4.986,0.995,8.551e7,4128.026,740.302,0.628,0.628,0.284,0.135,0.209,0.003,0.015,2.504e-4,0,0,0,0,-8.884e-6,0.033,15.24,182.415,83.765,0.02,0.1,14.505,930.911,340.089,0.05,0.059,646.093
4.091,749.666,339.593,61.013,341.6,61.516,77.179,0.018,77.179,0.014,36.97,7.85,48.476,-80.439,9.806,0.022,5.859e-7,-0.259,0.003,4.628e4,6674.103,55.081,0.24,326.132,249.89,5.003,1.005,8.618e7,4052.097,753.983,0.629,0.629,0.282,0.138,0.209,0.005,0.024,-3.332e-4,0,0,0,0,-2.885e-6,0.033,15.24,182.415,83.747,0.02,0.1,14.384,929.081,340.016,0.05,0.059,656.881
4.141,766.724,342.69,61.855,344.722,62.362,79.038,0.019,79.038,0.014,37.368,7.939,48.476,-80.439,9.806,0.02,3.181e-7,-0.038,0.003,4.617e4,6564.417,55.037,0.24,326.307,249.787,5.021,1.014,8.686e7,4098.566,769.198,0.631,0.631,0.281,0.143,0.207,0.004,0.021,-5.658e-5,0,0,0,0,-6.096e-8,0.034,15.24,182.415,83.74,0.021,0.1,14.263,927.234,339.942,0.05,0.06,667.895
4.191,783.934,345.741,60.923,347.796,61.416,80.916,0.02,80.916,0.014,37.759,7.767,48.476,-80.439,9.806,0.008,0,0.109,0.006,4.607e4,6456.768,54.976,0.24,326.526,249.649,5.044,1.023,8.753e7,4062.417,784.356,0.634,0.634,0.279,0.149,0.205,0.002,0.009,4.767e-4,0,0,0,0,4.972e-7,0.034,15.24,182.415,83.743,0.023,0.1,14.14,925.371,339.868,0.05,0.06,678.786
4.241,801.297,348.756,60.224,350.835,60.702,82.814,0.02,82.814,0.014,38.141,7.595,48.476,-80.439,9.806,0.007,0,-0.118,0.005,4.596e4,6351.12,54.927,0.239,326.67,249.537,5.061,1.033,8.818e7,4037.302,799.51,0.636,0.636,0.278,0.154,0.203,0.002,0.007,3.505e-4,0,0,0,0,-5.726e-7,0.034,15.24,182.415,83.75,0.025,0.1,14.017,923.491,339.793,0.05,0.061,689.594
4.291,818.809,351.723,59.254,353.826,59.717,84.73,0.021,84.73,0.014,38.514,7.421,48.476,-80.439,9.806,0.018,0,0.028,-0.002,4.586e4,6247.434,54.871,0.239,326.74,249.41,5.074,1.042,8.882e7,3999.959,814.578,0.638,0.638,0.277,0.16,0.202,0.004,0.019,4.235e-5,0,0,0,0,3.071e-8,0.034,15.24,182.415,83.753,0.025,0.1,13.892,921.595,339.718,0.05,0.061,700.263
4.341,836.468,354.657,58.591,356.782,59.05,86.665,0.022,86.665,0.015,38.881,7.35,48.476,-80.439,9.806,0.018,0,0.236,0.003,4.575e4,6145.673,54.811,0.239,326.856,249.272,5.091,1.051,8.945e7,3977.263,829.448,0.64,0.64,0.275,0.165,0.2,0.004,0.02,-3.051e-4,0,0,0,0,2.209e-6,0.035,15.24,182.415,83.746,0.025,0.1,13.766,919.683,339.641,0.05,0.061,710.849
4.391,854.276,357.65,59.796,359.798,60.271,88.618,0.023,88.618,0.015,39.257,7.554,48.476,-80.439,9.806,0.009,0,0.4,0.012,4.565e4,6045.803,54.768,0.239,327.019,249.172,5.108,1.06,9.009e7,4038.147,841.532,0.639,0.639,0.274,0.167,0.198,0.002,0.01,3.808e-4,0,0,0,0,6.234e-6,0.035,15.24,182.415,83.73,0.023,0.1,13.64,917.755,339.564,0.05,0.062,721.722
4.441,872.233,360.623,59.39,362.795,59.877,90.591,0.024,90.591,0.015,39.636,7.62,48.476,-80.439,9.806,0.004,0,-0.433,0.037,4.556e4,5954.882,54.712,0.238,327.152,249.045,5.125,1.069,9.072e7,4025.823,853.598,0.639,0.639,0.272,0.17,0.197,8.408e-4,0.005,3.567e-5,0,0,0,0,-7.167e-6,0.035,15.24,182.415,83.708,0.022,0.1,13.512,915.811,339.487,0.05,0.062,732.565
4.491,890.338,363.568,58.829,365.763,59.324,92.582,0.025,92.582,0.015,40.017,7.648,48.476,-80.439,9.806,0.014,-4.242e-7,-0.32,0.011,4.547e4,5858.556,54.652,0.238,327.183,248.909,5.136,1.078,9.134e7,4005.875,865.608,0.638,0.638,0.271,0.173,0.195,0.003,0.015,-1.5e-5,0,0,0,0,-3.845e-6,0.036,15.24,182.415,83.688,0.022,0.1,13.383,913.851,339.409,0.05,0.062,743.343
4.541,908.59,366.507,58.722,368.727,59.22,94.592,0.025,94.592,0.015,40.4,7.665,48.476,-80.439,9.806,0.016,9.7e-7,-0.12,-5.055e-4,4.537e4,5764.02,54.61,0.238,327.25,248.81,5.147,1.087,9.195e7,4006.686,877.661,0.638,0.638,0.269,0.175,0.193,0.004,0.018,2.408e-4,0,0,0,0,-5.336e-7,0.036,15.24,182.415,83.677,0.023,0.1,13.253,911.875,339.33,0.05,0.063,754.145
4.591,926.989,369.485,59.502,371.729,59.999,96.622,0.026,96.622,0.016,40.787,7.705,48.476,-80.439,9.806,0.009,4.459e-7,0.045,-5.74e-4,4.528e4,5671.239,54.55,0.238,327.362,248.675,5.163,1.096,9.257e7,4047.873,889.959,0.638,0.638,0.268,0.178,0.192,0.002,0.01,-5.868e-6,0,0,0,0,7.235e-8,0.036,15.24,182.415,83.676,0.024,0.1,13.122,909.882,339.251,0.05,0.063,765.153
4.641,945.537,372.417,58.585,374.685,59.065,98.671,0.027,98.671,0.016,41.166,7.518,48.476,-80.439,9.806,0.003,4.62e-7,-0.078,-0.005,4.519e4,5580.181,54.509,0.237,327.451,248.578,5.175,1.105,9.318e7,4011.111,901.652,0.637,0.637,0.267,0.18,0.19,6.5e-4,0.003,-2.115e-5,0,0,0,0,-2.194e-7,0.037,15.24,182.415,83.681,0.026,0.1,12.99,907.874,339.171,0.05,0.063,776.011
4.691,964.23,375.296,57.566,377.587,58.032,100.738,0.028,100.738,0.016,41.534,7.338,48.476,-80.439,9.806,0.012,4.621e-7,0.03,-0.005,4.507e4,5461.414,54.429,0.237,327.442,248.397,5.187,1.114,9.377e7,3967.504,912.75,0.636,0.636,0.266,0.181,0.189,0.003,0.014,-3.674e-4,0,0,0,0,3.098e-8,0.037,15.24,182.415,83.683,0.027,0.1,12.857,905.851,339.09,0.05,0.064,786.69
4.741,983.065,378.128,56.603,380.442,57.063,102.824,0.029,102.824,0.016,41.895,7.227,48.476,-80.439,9.805,0.014,6.649e-7,0.205,0.002,4.494e4,5336.074,54.343,0.237,327.464,248.202,5.201,1.122,9.435e7,3926.36,923.665,0.635,0.635,0.265,0.183,0.187,0.003,0.016,2.307e-4,0,0,0,0,1.456e-6,0.037,15.24,182.415,83.677,0.027,0.1,12.723,903.811,339.009,0.05,0.064,797.204
4.791,1002.042,380.934,56.096,383.271,56.56,104.928,0.03,104.928,0.016,42.255,7.235,48.476,-80.439,9.805,0.007,0,0.347,0.004,4.482e4,5212.363,54.275,0.236,327.521,248.044,5.215,1.131,9.491e7,3906.36,934.497,0.634,0.634,0.265,0.184,0.186,0.001,0.008,4.191e-4,0,0,0,0,4.116e-6,0.037,15.24,182.415,83.662,0.027,0.1,12.587,901.757,338.927,0.05,0.065,807.646
4.841,1021.158,383.715,55.581,386.074,56.056,107.05,0.031,107.05,0.017,42.617,7.276,48.476,-80.439,9.805,0.004,7.623e-7,-0.366,-9.537e-4,4.47e4,5090.25,54.188,0.236,327.543,247.847,5.229,1.139,9.547e7,3886.36,945.243,0.634,0.634,0.264,0.185,0.184,8.651e-4,0.005,-1.79e-4,0,0,0,0,-4.514e-6,0.038,15.24,182.415,83.643,0.027,0.1,12.451,899.687,338.844,0.05,0.065,818.015
4.891,1040.413,386.47,55.067,388.853,55.547,109.189,0.032,109.189,0.017,42.98,7.292,48.476,-80.439,9.805,0.011,5.653e-7,-0.248,-5.304e-4,4.458e4,4969.707,54.101,0.236,327.494,247.649,5.239,1.148,9.602e7,3866.36,955.899,0.633,0.633,0.263,0.187,0.183,0.002,0.013,-3.551e-4,0,0,0,0,-2.051e-6,0.038,15.24,182.415,83.627,0.027,0.1,12.314,897.603,338.761,0.05,0.065,828.305
4.941,1059.805,389.199,54.556,391.605,55.035,111.347,0.033,111.347,0.017,43.343,7.244,48.476,-80.438,9.805,0.011,4.382e-7,-0.083,-7.065e-4,4.446e4,4850.704,54.033,0.236,327.475,247.489,5.248,1.156,9.655e7,3846.36,966.462,0.632,0.632,0.262,0.188,0.182,0.002,0.012,4.682e-4,0,0,0,0,-2.259e-7,0.038,15.24,182.415,83.619,0.027,0.1,12.176,895.503,338.678,0.05,0.066,838.514
4.991,1079.332,391.903,54.05,394.332,54.519,113.524,0.034,113.524,0.017,43.701,7.135,48.476,-80.438,9.805,0.004,3.375e-7,0.027,0.004,4.434e4,4733.213,53.946,0.235,327.484,247.289,5.262,1.165,9.708e7,3826.36,976.928,0.631,0.631,0.262,0.189,0.18,8.89e-4,0.005,-3.779e-4,0,0,0,0,2.442e-8,0.038,15.24,182.415,83.619,0.028,0.1,12.037,893.389,338.593,0.05,0.066,848.639
5.041,1098.994,394.582,53.543,397.033,53.999,115.717,0.035,115.717,0.017,44.053,7.004,48.476,-80.438,9.805,0.005,3.57e-7,-0.012,-0.003,4.423e4,4617.204,53.858,0.235,327.433,247.088,5.272,1.173,9.76e7,3806.36,987.296,0.63,0.63,0.261,0.19,0.179,0.001,0.006,-1.445e-4,0,0,0,0,0,0.039,15.24,182.415,83.621,0.029,0.1,11.897,891.26,338.509,0.05,0.066,858.677
5.091,1118.79,397.235,53.03,399.708,53.478,117.929,0.036,117.929,0.018,44.399,6.909,48.476,-80.438,9.805,0.01,5.96e-7,0.108,0.002,4.411e4,4502.652,53.782,0.235,327.348,246.909,5.278,1.181,9.811e7,3786.36,997.561,0.63,0.63,0.26,0.192,0.178,0.002,0.012,2.008e-4,0,0,0,0,3.672e-7,0.039,15.24,182.415,83.619,0.029,0.1,11.756,889.117,338.423,0.05,0.067,868.624
5.141,1138.717,399.862,52.507,402.357,52.956,120.157,0.037,120.157,0.018,44.742,6.876,48.476,-80.438,9.805,0.008,0,0.251,-0.005,4.4e4,4389.529,53.702,0.234,327.29,246.725,5.286,1.189,9.861e7,3766.36,1007.721,0.629,0.629,0.259,0.193,0.177,0.002,0.009,2.202e-4,0,0,0,0,1.959e-6,0.039,15.24,182.415,83.61,0.029,0.1,11.614,886.959,338.337,0.05,0.067,878.477
5.191,1158.775,402.463,51.977,404.98,52.432,122.403,0.039,122.403,0.018,45.085,6.891,48.476,-80.438,9.805,7.365e-4,-3.028e-7,0.321,-0.049,4.389e4,4277.807,53.615,0.234,327.252,246.521,5.297,1.197,9.909e7,3746.36,1017.773,0.628,0.628,0.259,0.194,0.175,1.58e-4,4.58e-4,5.614e-5,0,0,0,0,3.153e-6,0.039,15.24,182.415,83.595,0.03,0.1,11.471,884.788,338.251,0.05,0.068,888.233
5.241,1178.963,405.037,51.458,407.577,51.919,124.666,0.04,124.666,0.018,45.429,6.909,48.476,-80.438,9.805,0.007,7.344e-7,-0.267,-0.009,4.378e4,4167.462,53.547,0.234,327.124,246.36,5.299,1.205,9.957e7,3726.36,1027.149,0.627,0.627,0.258,0.195,0.174,0.001,0.008,-3.699e-5,0,0,0,0,-2.152e-6,0.04,15.24,182.415,83.579,0.03,0.1,11.328,882.602,338.163,0.05,0.068,897.891
5.291,1199.278,407.586,50.948,410.148,51.41,126.946,0.041,126.946,0.018,45.773,6.881,48.476,-80.438,9.805,0.009,1.2e-6,-0.131,-0.009,4.367e4,4058.468,53.46,0.234,327.006,246.155,5.305,1.213,1e8,3706.36,1036.123,0.626,0.626,0.257,0.196,0.173,0.002,0.011,2.451e-4,0,0,0,0,-5.17e-7,0.04,15.24,182.415,83.569,0.03,0.1,11.183,880.403,338.076,0.05,0.069,907.451
5.341,1219.721,410.109,50.441,412.694,50.897,129.243,0.042,129.243,0.019,46.114,6.795,48.476,-80.438,9.805,0.005,0,-0.015,0.006,4.356e4,3950.799,53.384,0.233,326.911,245.974,5.311,1.221,1.005e8,3686.36,1045.061,0.625,0.625,0.257,0.196,0.172,0.001,0.005,-2.23e-4,0,0,0,0,-6.966e-9,0.04,15.24,182.415,83.566,0.029,0.1,11.038,878.263,337.988,0.05,0.069,916.987
5.391,1240.289,412.607,49.935,415.213,50.38,131.557,0.043,131.557,0.019,46.449,6.679,48.476,-80.438,9.805,0.002,3.427e-7,-3.996e-4,-0.004,4.345e4,3844.431,53.306,0.233,326.796,245.788,5.316,1.229,1.01e8,3666.36,1053.913,0.624,0.624,0.256,0.197,0.171,4.926e-4,0.003,-4.677e-4,0,0,0,0,0,0.04,15.24,182.415,83.566,0.029,0.1,10.891,876.14,337.899,0.05,0.07,926.453
5.441,1260.981,415.08,49.426,417.707,49.862,133.888,0.045,133.888,0.019,46.779,6.581,48.476,-80.438,9.805,0.007,0,0.093,-0.006,4.335e4,3739.339,53.22,0.233,326.627,245.582,5.318,1.237,1.014e8,3646.36,1062.642,0.623,0.623,0.255,0.197,0.17,0.002,0.008,-2.042e-4,0,0,0,0,2.497e-7,0.041,15.24,182.415,83.564,0.031,0.1,10.744,874.004,337.81,0.05,0.07,935.815
5.491,1281.796,417.527,48.91,420.175,49.344,136.235,0.046,136.235,0.019,47.105,6.535,48.476,-80.438,9.805,0.007,0,0.212,-0.012,4.324e4,3635.501,53.145,0.232,326.478,245.4,5.32,1.244,1.019e8,3626.36,1071.245,0.621,0.621,0.255,0.198,0.169,0.001,0.008,-1.42e-5,0,0,0,0,1.282e-6,0.041,15.24,182.415,83.557,0.032,0.1,10.596,871.855,337.72,0.05,0.07,945.071
5.541,1302.733,419.948,48.387,422.618,48.826,138.598,0.047,138.598,0.02,47.431,6.534,48.476,-80.438,9.804,0.001,1.052e-6,0.276,-0.053,4.314e4,3532.893,53.068,0.232,326.344,245.213,5.324,1.252,1.023e8,3606.36,1079.722,0.62,0.62,0.254,0.199,0.168,2.673e-4,0.001,2.616e-4,0,0,0,0,2.14e-6,0.041,15.24,182.415,83.544,0.034,0.1,10.446,869.693,337.629,0.05,0.071,954.22
5.591,1323.79,422.342,47.862,425.034,48.307,140.978,0.049,140.978,0.02,47.756,6.539,48.476,-80.438,9.804,0.005,0,-0.241,-0.009,4.304e4,3431.491,52.984,0.232,326.15,245.005,5.324,1.259,1.027e8,3586.36,1088.071,0.619,0.619,0.253,0.199,0.167,9.903e-4,0.006,3.422e-4,0,0,0,0,-1.615e-6,0.041,15.24,182.415,83.53,0.033,0.1,10.297,867.52,337.539,0.05,0.071,963.259
5.641,1344.967,424.711,47.339,427.424,47.784,143.374,0.05,143.374,0.02,48.082,6.508,48.476,-80.438,9.804,0.007,1.122e-6,-0.139,-0.012,4.294e4,3332.786,52.902,0.232,325.951,244.8,5.325,1.267,1.031e8,3566.36,1096.289,0.618,0.618,0.253,0.2,0.166,0.001,0.008,2.124e-4,0,0,0,0,-5.314e-7,0.042,15.24,182.415,83.52,0.032,0.1,10.146,865.333,337.447,0.05,0.072,972.184
5.691,1366.258,426.959,44.932,429.693,45.359,145.786,0.051,145.786,0.02,48.394,6.212,48.476,-80.438,9.804,0.004,7.21e-7,-0.043,-0.005,4.287e4,3264.309,52.862,0.232,325.78,244.701,5.32,1.274,1.035e8,3466.128,1103.962,0.617,0.617,0.252,0.2,0.165,7.689e-4,0.004,-3.588e-4,0,0,0,0,-5.133e-8,0.042,15.24,182.415,83.516,0.031,0.1,9.994,863.135,337.355,0.05,0.072,980.565
5.741,1387.618,427.445,9.734,430.188,9.972,148.208,0.053,148.208,0.02,48.503,2.165,48.476,-80.438,9.804,0.002,4.091e-7,0.035,-0.007,4.281e4,3204.03,52.812,0.231,325.741,244.572,5.326,1.276,1.035e8,1945.831,1103.819,0.617,0.617,0.252,0.201,0.165,3.649e-4,0.002,-3.109e-4,0,0,0,0,3.247e-8,0.042,15.24,182.415,83.515,0.032,0.1,9.842,860.93,337.263,0.05,0.073,980.842
5.791,1408.993,427.522,1.571,430.272,1.979,150.635,0.054,150.635,0.021,48.563,1.204,48.476,-80.438,9.804,0.006,0,0.102,-0.007,4.275e4,3144.871,52.762,0.231,325.702,244.445,5.332,1.276,1.033e8,1591.282,1101.86,0.617,0.617,0.252,0.201,0.165,0.001,0.006,-3.701e-4,0,0,0,0,2.832e-7,0.042,15.24,182.415,83.512,0.034,0.1,9.69,858.723,337.171,0.05,0.073,979.233
5.841,1430.363,427.285,-4.695,430.039,4.722,153.064,0.055,153.064,0.021,48.587,0.498,48.476,-80.438,9.804,0.005,3.967e-7,0.201,-0.009,4.27e4,3086.81,52.723,0.231,325.716,244.344,5.339,1.276,1.031e8,1318.04,1098.517,0.617,0.617,0.252,0.201,0.165,0.001,0.006,-3.79e-5,0,0,0,0,1.095e-6,0.042,15.24,182.415,83.505,0.035,0.1,9.538,856.517,337.079,0.05,0.073,976.187
5.891,1451.722,427.065,-4.361,429.824,4.399,155.494,0.057,155.494,0.021,48.615,0.574,48.476,-80.438,9.804,7.338e-4,1.583e-6,0.234,-0.087,4.264e4,3029.827,52.682,0.231,325.748,244.24,5.348,1.276,1.029e8,1329.016,1095.253,0.617,0.617,0.252,0.201,0.165,1.528e-4,9.995e-4,4.367e-4,0,0,0,0,1.491e-6,0.042,15.24,182.415,83.493,0.035,0.1,9.386,854.312,336.987,0.05,0.074,973.222
5.941,1473.075,427.066,0.035,429.83,1.118,157.926,0.058,157.926,0.021,48.67,1.118,48.476,-80.438,9.804,0.004,1.015e-6,-0.223,-0.008,4.258e4,2973.904,52.635,0.231,325.719,244.116,5.355,1.276,1.027e8,1515,1092.956,0.617,0.617,0.252,0.201,0.165,8.187e-4,0.005,2.768e-4,0,0,0,0,-1.36e-6,0.042,15.24,182.415,83.481,0.034,0.1,9.234,852.108,336.894,0.05,0.074,971.262
5.991,1494.425,426.95,-2.266,429.72,2.427,160.36,0.06,160.36,0.021,48.713,0.868,48.476,-80.438,9.804,0.005,3.6e-7,-0.138,0.008,4.253e4,2919.019,52.606,0.231,325.71,244.041,5.359,1.276,1.025e8,1413.225,1090.154,0.617,0.617,0.252,0.201,0.165,0.001,0.006,1.422e-5,0,0,0,0,-5.196e-7,0.042,15.24,182.415,83.472,0.033,0.1,9.082,849.904,336.802,0.05,0.074,968.777
6.041,1515.772,426.92,-0.573,429.696,1.189,162.797,0.061,162.797,0.022,48.766,1.041,48.476,-80.438,9.804,0.003,3.437e-7,-0.055,0.009,4.247e4,2865.154,52.57,0.23,325.717,243.947,5.365,1.276,1.024e8,1482.655,1087.722,0.617,0.617,0.252,0.201,0.165,6e-4,0.003,-3.803e-4,0,0,0,0,-8.376e-8,0.042,15.24,182.415,83.467,0.035,0.1,8.93,847.7,336.71,0.05,0.075,966.677
6.091,1537.118,426.909,-0.177,429.692,1.061,165.237,0.063,165.237,0.022,48.819,1.046,48.476,-80.438,9.804,0.002,3.092e-7,0.054,-0.006,4.243e4,2825.379,52.544,0.23,325.713,243.878,5.37,1.277,1.022e8,1496.681,1085.375,0.617,0.617,0.252,0.201,0.165,3.783e-4,0.002,-1.477e-4,0,0,0,0,8.06e-8,0.042,15.24,182.415,83.465,0.037,0.1,8.778,845.496,336.618,0.05,0.075,964.664
6.141,1558.462,426.881,-0.522,429.669,1.112,167.679,0.064,167.679,0.022,48.868,0.982,48.476,-80.438,9.804,0.005,9.337e-7,0.112,-0.003,4.231e4,2697.005,52.446,0.23,325.689,243.612,5.386,1.277,1.02e8,1478.176,1082.947,0.617,0.617,0.252,0.201,0.165,9.873e-4,0.005,3.156e-6,0,0,0,0,3.435e-7,0.042,15.24,182.415,83.461,0.037,0.1,8.626,843.293,336.526,0.05,0.076,962.568
6.191,1579.805,426.81,-1.377,429.604,1.639,170.124,0.066,170.124,0.022,48.912,0.889,48.476,-80.438,9.804,0.004,0,0.183,0.007,4.225e4,2641.574,52.407,0.23,325.687,243.505,5.393,1.277,1.018e8,1438.721,1080.335,0.617,0.617,0.252,0.201,0.165,8.902e-4,0.005,4.604e-4,0,0,0,0,9.13e-7,0.042,15.24,182.415,83.454,0.036,0.1,8.474,841.089,336.434,0.05,0.076,960.279
6.241,1601.138,426.522,-5.729,429.32,5.745,172.57,0.067,172.57,0.022,48.932,0.424,48.476,-80.438,9.804,4.836e-4,0,0.222,0.052,4.22e4,2587.371,52.363,0.23,325.722,243.378,5.403,1.276,1.016e8,1250.012,1076.781,0.617,0.617,0.252,0.201,0.165,1.006e-4,5.17e-5,-2.3e-4,0,0,0,0,1.35e-6,0.042,15.24,182.415,83.443,0.035,0.1,8.322,838.887,336.342,0.05,0.077,957.013
6.291,1622.458,426.283,-4.728,429.086,4.762,175.017,0.069,175.017,0.023,48.959,0.57,48.476,-80.438,9.804,0.003,6.588e-7,-0.202,0.003,4.214e4,2534.369,52.335,0.23,325.717,243.303,5.408,1.276,1.014e8,1289.11,1073.45,0.617,0.617,0.252,0.201,0.165,6.4e-4,0.004,1.192e-4,0,0,0,0,-1.112e-6,0.042,15.24,182.415,83.431,0.035,0.1,8.17,836.686,336.25,0.05,0.077,953.978
6.341,1643.764,425.942,-6.789,428.748,6.797,177.465,0.07,177.465,0.023,48.976,0.342,48.476,-80.438,9.803,0.004,4.727e-7,-0.144,0.005,4.209e4,2482.541,52.302,0.23,325.73,243.209,5.415,1.275,1.011e8,1197.79,1069.68,0.617,0.617,0.252,0.201,0.165,8.558e-4,0.004,4.177e-4,0,0,0,0,-5.714e-7,0.042,15.24,182.415,83.423,0.037,0.1,8.018,834.486,336.158,0.05,0.077,950.486
6.391,1665.047,425.395,-10.886,428.204,10.887,179.914,0.072,179.914,0.023,48.969,0.146,48.476,-80.438,9.803,0.002,7.318e-7,-0.087,-0.005,4.204e4,2431.861,52.268,0.229,325.776,243.11,5.424,1.274,1.008e8,1019.514,1065.037,0.617,0.617,0.252,0.2,0.165,4.669e-4,0.003,4.024e-4,0,0,0,0,-2.083e-7,0.042,15.24,182.415,83.418,0.038,0.1,7.867,832.289,336.066,0.05,0.078,946.088
6.441,1686.302,424.812,-11.598,427.624,11.601,182.362,0.074,182.362,0.023,48.957,0.258,48.476,-80.438,9.803,0.001,5.363e-7,0.078,-0.003,4.199e4,2382.303,52.228,0.229,325.82,242.991,5.435,1.273,1.005e8,984.548,1060.254,0.617,0.617,0.252,0.2,0.165,2.412e-4,9.375e-4,4.421e-4,0,0,0,0,1.669e-7,0.042,15.24,182.415,83.414,0.038,0.1,7.715,830.095,335.974,0.05,0.078,941.544
6.491,1707.526,424.144,-13.307,426.957,13.315,184.809,0.075,184.809,0.023,48.933,0.475,48.476,-80.437,9.803,0.003,4.45e-7,0.114,-0.004,4.194e4,2333.844,52.204,0.229,325.851,242.925,5.441,1.271,1.002e8,907.275,1055.137,0.618,0.618,0.252,0.2,0.165,7.28e-4,0.004,-3.28e-5,0,0,0,0,3.564e-7,0.042,15.24,182.415,83.409,0.038,0.1,7.564,827.916,335.883,0.05,0.079,936.652
6.541,1728.707,423.105,-20.71,425.917,20.753,187.254,0.077,187.254,0.024,48.866,1.33,48.476,-80.437,9.803,0.003,9.236e-7,0.169,-0.002,4.19e4,2286.457,52.181,0.229,325.926,242.86,5.45,1.268,9.981e7,588.654,1048.58,0.618,0.618,0.252,0.2,0.166,6.831e-4,0.003,-2.995e-4,0,0,0,0,7.969e-7,0.042,15.24,182.415,83.402,0.038,0.1,7.413,825.832,335.791,0.05,0.079,930.248
6.591,1749.844,422.365,-14.726,425.179,14.739,189.697,0.078,189.697,0.024,48.834,0.615,48.476,-80.437,9.803,5.455e-4,4.004e-7,0.2,0.031,4.185e4,2240.12,52.159,0.229,325.99,242.798,5.459,1.267,9.948e7,836.08,1043.319,0.618,0.618,0.253,0.2,0.166,1.141e-4,3.511e-4,1.151e-4,0,0,0,0,1.117e-6,0.041,15.24,182.415,83.392,0.038,0.1,7.263,823.752,335.7,0.05,0.079,925.189
6.641,1770.929,421.028,-26.663,423.839,26.736,192.136,0.08,192.136,0.024,48.734,1.979,48.476,-80.437,9.803,0.002,0,-0.189,0.024,4.18e4,2194.81,52.131,0.229,326.074,242.715,5.47,1.263,9.901e7,326.318,1035.56,0.619,0.619,0.253,0.2,0.166,4.218e-4,0.002,-2.055e-4,0,0,0,0,-9.983e-7,0.041,15.24,182.415,83.382,0.037,0.1,7.113,821.678,335.609,0.05,0.08,917.544
6.691,1791.945,419.629,-27.902,422.437,27.982,194.57,0.082,194.57,0.024,48.628,2.117,48.476,-80.437,9.803,0.003,6.05e-7,-0.155,0.005,4.176e4,2150.503,52.116,0.229,326.163,242.679,5.478,1.259,9.853e7,267.038,1027.582,0.619,0.619,0.253,0.199,0.167,6.438e-4,0.003,-3.784e-4,0,0,0,0,-6.744e-7,0.041,15.24,182.415,83.373,0.038,0.1,6.963,819.61,335.519,0.05,0.08,909.674
6.741,1812.9,418.573,-21.035,421.381,21.077,197,0.083,197,0.024,48.561,1.331,48.476,-80.437,9.803,0.002,3.406e-7,-0.102,0.004,4.172e4,2107.178,52.091,0.229,326.237,242.6,5.488,1.256,9.813e7,549.629,1021.081,0.62,0.62,0.253,0.199,0.167,3.709e-4,0.002,-2.807e-5,0,0,0,0,-2.961e-7,0.041,15.24,182.415,83.367,0.04,0.1,6.814,817.549,335.428,0.05,0.081,903.336
6.791,1833.793,417.126,-28.86,419.93,28.949,199.425,0.085,199.425,0.024,48.448,2.265,48.476,-80.437,9.803,9.028e-4,0,0.086,-0.043,4.167e4,2064.812,52.071,0.228,326.334,242.546,5.498,1.252,9.764e7,213.604,1012.981,0.62,0.62,0.254,0.199,0.168,1.901e-4,0.002,3.361e-4,0,0,0,0,2.109e-7,0.041,15.24,182.415,83.362,0.043,0.1,6.665,815.493,335.338,0.05,0.081,895.347
